zip,lat,lng,city,state_id,state_name,zcta,parent_zcta,population,density,county_fips,county_name,all_county_weights,imprecise,military,timezone
75001,32.96,-96.83847,Addison,TX,Texas,TRUE,,12414,1250.2,48113,Dallas,{'48113':100},FALSE,FALSE,America/Chicago
75002,33.08966,-96.60751,Allen,TX,Texas,TRUE,,63140,655.6,48085,Collin,{'48085':100},FALSE,FALSE,America/Chicago
75006,32.96188,-96.89701,Carrollton,TX,Texas,TRUE,,46364,1065,48113,Dallas,{'48113':100},FALSE,FALSE,America/Chicago
75007,33.00462,-96.89714,Carrollton,TX,Texas,TRUE,,51624,1709.9,48121,Denton,"{'48113':5.79,'48121':94.21}",FALSE,FALSE,America/Chicago
75009,33.34028,-96.75033,Celina,TX,Texas,TRUE,,8785,35.5,48085,Collin,"{'48085':94.8,'48121':5.2}",FALSE,FALSE,America/Chicago
75010,33.03424,-96.89672,Carrollton,TX,Texas,TRUE,,21607,1033,48121,Denton,{'48121':100},FALSE,FALSE,America/Chicago
75013,33.11467,-96.69411,Allen,TX,Texas,TRUE,,30347,779.2,48085,Collin,{'48085':100},FALSE,FALSE,America/Chicago
75019,32.96329,-96.98553,Coppell,TX,Texas,TRUE,,38666,906,48113,Dallas,"{'48113':98.05,'48121':1.95}",FALSE,FALSE,America/Chicago
75020,33.77167,-96.60413,Denison,TX,Texas,TRUE,,21872,135,48181,Grayson,{'48181':100},FALSE,FALSE,America/Chicago
75021,33.72616,-96.47326,Denison,TX,Texas,TRUE,,8036,51.6,48181,Grayson,{'48181':100},FALSE,FALSE,America/Chicago
75022,33.02772,-97.12023,Flower Mound,TX,Texas,TRUE,,22545,453.2,48121,Denton,"{'48121':99.09,'48439':0.91}",FALSE,FALSE,America/Chicago
75023,33.05706,-96.73242,Plano,TX,Texas,TRUE,,45452,1862.7,48085,Collin,{'48085':100},FALSE,FALSE,America/Chicago
75024,33.07735,-96.80704,Plano,TX,Texas,TRUE,,36039,1098.1,48085,Collin,"{'48085':94.2,'48121':5.8}",FALSE,FALSE,America/Chicago
75025,33.09095,-96.74128,Plano,TX,Texas,TRUE,,50926,2102.5,48085,Collin,{'48085':100},FALSE,FALSE,America/Chicago
75028,33.0328,-97.06086,Flower Mound,TX,Texas,TRUE,,42226,1075.2,48121,Denton,"{'48121':99.99,'48439':0.01}",FALSE,FALSE,America/Chicago
75032,32.85504,-96.42764,Rockwall,TX,Texas,TRUE,,27986,210.6,48397,Rockwall,{'48397':100},FALSE,FALSE,America/Chicago
75034,33.15196,-96.86035,Frisco,TX,Texas,TRUE,,72723,560.3,48121,Denton,"{'48085':34.04,'48121':65.96}",FALSE,FALSE,America/Chicago
75035,33.15534,-96.7727,Frisco,TX,Texas,TRUE,,47553,777.5,48085,Collin,{'48085':100},FALSE,FALSE,America/Chicago
75038,32.87458,-96.99758,Irving,TX,Texas,TRUE,,27802,802.6,48113,Dallas,{'48113':100},FALSE,FALSE,America/Chicago
75039,32.88752,-96.94225,Irving,TX,Texas,TRUE,,11032,810.6,48113,Dallas,{'48113':100},FALSE,FALSE,America/Chicago
75040,32.92766,-96.62008,Garland,TX,Texas,TRUE,,59406,1465.4,48113,Dallas,{'48113':100},FALSE,FALSE,America/Chicago
75041,32.88091,-96.65147,Garland,TX,Texas,TRUE,,30700,1481.3,48113,Dallas,{'48113':100},FALSE,FALSE,America/Chicago
75042,32.9139,-96.67493,Garland,TX,Texas,TRUE,,37881,1954.7,48113,Dallas,{'48113':100},FALSE,FALSE,America/Chicago
75043,32.85707,-96.57941,Garland,TX,Texas,TRUE,,58094,1541,48113,Dallas,{'48113':100},FALSE,FALSE,America/Chicago
75044,32.96264,-96.65323,Garland,TX,Texas,TRUE,,40811,1467.3,48113,Dallas,"{'48085':0.64,'48113':99.36}",FALSE,FALSE,America/Chicago
75048,32.97201,-96.58087,Sachse,TX,Texas,TRUE,,20328,748.4,48113,Dallas,"{'48085':31.09,'48113':68.91}",FALSE,FALSE,America/Chicago
75050,32.77409,-97.00533,Grand Prairie,TX,Texas,TRUE,,41041,640.3,48113,Dallas,"{'48113':76.1,'48439':23.9}",FALSE,FALSE,America/Chicago
75051,32.72757,-96.99439,Grand Prairie,TX,Texas,TRUE,,39285,1249,48113,Dallas,"{'48113':90.73,'48439':9.27}",FALSE,FALSE,America/Chicago
75052,32.66591,-97.02648,Grand Prairie,TX,Texas,TRUE,,88996,1313.6,48113,Dallas,"{'48113':62.84,'48439':37.16}",FALSE,FALSE,America/Chicago
75054,32.59062,-97.04051,Grand Prairie,TX,Texas,TRUE,,5053,359.9,48439,Tarrant,"{'48113':2.37,'48439':97.63}",FALSE,FALSE,America/Chicago
75056,33.07395,-96.91483,The Colony,TX,Texas,TRUE,,47852,731.4,48121,Denton,{'48121':100},FALSE,FALSE,America/Chicago
75057,33.04952,-96.98383,Lewisville,TX,Texas,TRUE,,12900,489.2,48121,Denton,{'48121':100},FALSE,FALSE,America/Chicago
75058,33.45011,-96.74225,Gunter,TX,Texas,TRUE,,2982,20,48181,Grayson,{'48181':100},FALSE,FALSE,America/Chicago
75060,32.79601,-96.95446,Irving,TX,Texas,TRUE,,45980,1339.1,48113,Dallas,{'48113':100},FALSE,FALSE,America/Chicago
75061,32.82602,-96.96544,Irving,TX,Texas,TRUE,,53442,1783.8,48113,Dallas,{'48113':100},FALSE,FALSE,America/Chicago
75062,32.84699,-96.95696,Irving,TX,Texas,TRUE,,44537,1565.3,48113,Dallas,{'48113':100},FALSE,FALSE,America/Chicago
75063,32.92047,-96.986,Irving,TX,Texas,TRUE,,35090,894.5,48113,Dallas,{'48113':100},FALSE,FALSE,America/Chicago
75065,33.11093,-97.0119,Lake Dallas,TX,Texas,TRUE,,10748,521.9,48121,Denton,{'48121':100},FALSE,FALSE,America/Chicago
75067,33.01371,-97.00024,Lewisville,TX,Texas,TRUE,,60982,1771.3,48121,Denton,"{'48113':1.38,'48121':98.62}",FALSE,FALSE,America/Chicago
75068,33.17647,-96.95054,Little Elm,TX,Texas,TRUE,,34934,491.4,48121,Denton,{'48121':100},FALSE,FALSE,America/Chicago
75069,33.16547,-96.59469,Mckinney,TX,Texas,TRUE,,34108,411.4,48085,Collin,{'48085':100},FALSE,FALSE,America/Chicago
75070,33.17311,-96.69773,Mckinney,TX,Texas,TRUE,,74734,1208.3,48085,Collin,{'48085':100},FALSE,FALSE,America/Chicago
75071,33.24664,-96.62898,Mckinney,TX,Texas,TRUE,,36090,176.8,48085,Collin,{'48085':100},FALSE,FALSE,America/Chicago
75074,33.0319,-96.67429,Plano,TX,Texas,TRUE,,44622,1043.2,48085,Collin,{'48085':100},FALSE,FALSE,America/Chicago
75075,33.02137,-96.74102,Plano,TX,Texas,TRUE,,33262,1303,48085,Collin,{'48085':100},FALSE,FALSE,America/Chicago
75076,33.79472,-96.72168,Pottsboro,TX,Texas,TRUE,,7378,57.3,48181,Grayson,{'48181':100},FALSE,FALSE,America/Chicago
75077,33.07885,-97.06273,Lewisville,TX,Texas,TRUE,,35330,976.2,48121,Denton,{'48121':100},FALSE,FALSE,America/Chicago
75078,33.24671,-96.80855,Prosper,TX,Texas,TRUE,,10592,125,48085,Collin,"{'48085':92.73,'48121':7.27}",FALSE,FALSE,America/Chicago
75080,32.97395,-96.74203,Richardson,TX,Texas,TRUE,,44009,1486.8,48113,Dallas,"{'48085':22.48,'48113':77.52}",FALSE,FALSE,America/Chicago
75081,32.94882,-96.7102,Richardson,TX,Texas,TRUE,,34156,1429.2,48113,Dallas,{'48113':100},FALSE,FALSE,America/Chicago
75082,32.99159,-96.66233,Richardson,TX,Texas,TRUE,,21182,1044,48085,Collin,"{'48085':88.75,'48113':11.25}",FALSE,FALSE,America/Chicago
75087,32.94172,-96.44993,Rockwall,TX,Texas,TRUE,,28145,415.1,48397,Rockwall,"{'48085':0.58,'48397':99.42}",FALSE,FALSE,America/Chicago
75088,32.89229,-96.54917,Rowlett,TX,Texas,TRUE,,24712,1045.6,48113,Dallas,"{'48113':82.23,'48397':17.77}",FALSE,FALSE,America/Chicago
75089,32.92975,-96.54975,Rowlett,TX,Texas,TRUE,,30251,1041.6,48113,Dallas,"{'48113':95.04,'48397':4.96}",FALSE,FALSE,America/Chicago
75090,33.60451,-96.54562,Sherman,TX,Texas,TRUE,,23724,119.1,48181,Grayson,{'48181':100},FALSE,FALSE,America/Chicago
75092,33.64891,-96.70004,Sherman,TX,Texas,TRUE,,22839,77.8,48181,Grayson,{'48181':100},FALSE,FALSE,America/Chicago
75093,33.0355,-96.81001,Plano,TX,Texas,TRUE,,47187,1291.2,48085,Collin,"{'48085':93.14,'48121':6.86}",FALSE,FALSE,America/Chicago
75094,33.01909,-96.61508,Plano,TX,Texas,TRUE,,20579,1138.9,48085,Collin,{'48085':100},FALSE,FALSE,America/Chicago
75098,33.01189,-96.53479,Wylie,TX,Texas,TRUE,,48197,565,48085,Collin,"{'48085':93.4,'48113':3.76,'48397':2.84}",FALSE,FALSE,America/Chicago
75101,32.27004,-96.70244,Bardwell,TX,Texas,TRUE,,646,303.1,48139,Ellis,{'48139':100},FALSE,FALSE,America/Chicago
75102,32.06629,-96.64223,Barry,TX,Texas,TRUE,,1322,8.4,48349,Navarro,{'48349':100},FALSE,FALSE,America/Chicago
75103,32.51192,-95.88237,Canton,TX,Texas,TRUE,,12851,24.9,48467,Van Zandt,{'48467':100},FALSE,FALSE,America/Chicago
75104,32.58039,-96.96618,Cedar Hill,TX,Texas,TRUE,,45373,448.3,48113,Dallas,"{'48113':99.1,'48139':0.9}",FALSE,FALSE,America/Chicago
75105,32.26654,-96.37522,Chatfield,TX,Texas,TRUE,,301,2.3,48349,Navarro,{'48349':100},FALSE,FALSE,America/Chicago
75109,32.04523,-96.35405,Corsicana,TX,Texas,TRUE,,3658,12.1,48349,Navarro,{'48349':100},FALSE,FALSE,America/Chicago
75110,32.08693,-96.52879,Corsicana,TX,Texas,TRUE,,28132,72.4,48349,Navarro,{'48349':100},FALSE,FALSE,America/Chicago
75114,32.61016,-96.44553,Crandall,TX,Texas,TRUE,,4660,41.6,48257,Kaufman,{'48257':100},FALSE,FALSE,America/Chicago
75115,32.59884,-96.86375,Desoto,TX,Texas,TRUE,,48877,860.5,48113,Dallas,{'48113':100},FALSE,FALSE,America/Chicago
75116,32.66017,-96.91393,Duncanville,TX,Texas,TRUE,,19669,1482.8,48113,Dallas,{'48113':100},FALSE,FALSE,America/Chicago
75117,32.71183,-95.85077,Edgewood,TX,Texas,TRUE,,3722,30.6,48467,Van Zandt,{'48467':100},FALSE,FALSE,America/Chicago
75119,32.32976,-96.59334,Ennis,TX,Texas,TRUE,,26601,38.8,48139,Ellis,"{'48139':99.3,'48349':0.7}",FALSE,FALSE,America/Chicago
75124,32.32674,-95.97242,Eustace,TX,Texas,TRUE,,4446,18.4,48213,Henderson,"{'48213':79.19,'48467':20.81}",FALSE,FALSE,America/Chicago
75125,32.53138,-96.62477,Ferris,TX,Texas,TRUE,,6691,37.1,48139,Ellis,"{'48113':4.87,'48139':95.13}",FALSE,FALSE,America/Chicago
75126,32.74204,-96.45185,Forney,TX,Texas,TRUE,,33396,166.7,48257,Kaufman,{'48257':100},FALSE,FALSE,America/Chicago
75127,32.69118,-95.79338,Fruitvale,TX,Texas,TRUE,,1593,23.1,48467,Van Zandt,{'48467':100},FALSE,FALSE,America/Chicago
75132,32.94537,-96.37375,Fate,TX,Texas,TRUE,,294,76.6,48397,Rockwall,{'48397':100},FALSE,FALSE,America/Chicago
75134,32.6201,-96.783,Lancaster,TX,Texas,TRUE,,20276,766,48113,Dallas,{'48113':100},FALSE,FALSE,America/Chicago
75135,33.06522,-96.22289,Caddo Mills,TX,Texas,TRUE,,5910,36.7,48231,Hunt,{'48231':100},FALSE,FALSE,America/Chicago
75137,32.634,-96.91176,Duncanville,TX,Texas,TRUE,,18861,1196.8,48113,Dallas,{'48113':100},FALSE,FALSE,America/Chicago
75140,32.64689,-95.69144,Grand Saline,TX,Texas,TRUE,,6958,23.9,48467,Van Zandt,{'48467':100},FALSE,FALSE,America/Chicago
75141,32.63998,-96.69464,Hutchins,TX,Texas,TRUE,,5374,181.9,48113,Dallas,{'48113':100},FALSE,FALSE,America/Chicago
75142,32.57358,-96.24717,Kaufman,TX,Texas,TRUE,,18982,42.3,48257,Kaufman,{'48257':100},FALSE,FALSE,America/Chicago
75143,32.36358,-96.24817,Kemp,TX,Texas,TRUE,,14619,31.7,48213,Henderson,"{'48213':53.51,'48257':46.49}",FALSE,FALSE,America/Chicago
75144,32.11312,-96.20884,Kerens,TX,Texas,TRUE,,3291,7.4,48349,Navarro,{'48349':100},FALSE,FALSE,America/Chicago
75146,32.57462,-96.75069,Lancaster,TX,Texas,TRUE,,17993,209.3,48113,Dallas,"{'48113':99.32,'48139':0.68}",FALSE,FALSE,America/Chicago
75147,32.433,-96.07743,Mabank,TX,Texas,TRUE,,6602,27.2,48213,Henderson,"{'48213':9.75,'48257':56.12,'48467':34.13}",FALSE,FALSE,America/Chicago
75148,32.12462,-96.01216,Malakoff,TX,Texas,TRUE,,5842,25.8,48213,Henderson,{'48213':100},FALSE,FALSE,America/Chicago
75149,32.77003,-96.61487,Mesquite,TX,Texas,TRUE,,56065,1363.2,48113,Dallas,{'48113':100},FALSE,FALSE,America/Chicago
75150,32.81577,-96.63039,Mesquite,TX,Texas,TRUE,,58730,1776.4,48113,Dallas,{'48113':100},FALSE,FALSE,America/Chicago
75152,32.43646,-96.68038,Palmer,TX,Texas,TRUE,,4606,43.4,48139,Ellis,{'48139':100},FALSE,FALSE,America/Chicago
75153,32.15027,-96.32857,Powell,TX,Texas,TRUE,,605,9.9,48349,Navarro,{'48349':100},FALSE,FALSE,America/Chicago
75154,32.52278,-96.8101,Red Oak,TX,Texas,TRUE,,36041,296,48139,Ellis,"{'48113':24.56,'48139':75.44}",FALSE,FALSE,America/Chicago
75155,32.22573,-96.47318,Rice,TX,Texas,TRUE,,2579,26.2,48349,Navarro,{'48349':100},FALSE,FALSE,America/Chicago
75156,32.28689,-96.0998,Mabank,TX,Texas,TRUE,,14580,179.8,48213,Henderson,{'48213':100},FALSE,FALSE,America/Chicago
75157,32.46225,-96.44688,Rosser,TX,Texas,TRUE,,310,70.4,48257,Kaufman,{'48257':100},FALSE,FALSE,America/Chicago
75158,32.46222,-96.39662,Scurry,TX,Texas,TRUE,,4139,18.2,48257,Kaufman,{'48257':100},FALSE,FALSE,America/Chicago
75159,32.60745,-96.54088,Seagoville,TX,Texas,TRUE,,18339,117.8,48113,Dallas,"{'48113':88.21,'48257':11.79}",FALSE,FALSE,America/Chicago
75160,32.76168,-96.30018,Terrell,TX,Texas,TRUE,,23627,76,48257,Kaufman,"{'48231':5.89,'48257':93.96,'48397':0.15}",FALSE,FALSE,America/Chicago
75161,32.73742,-96.17116,Terrell,TX,Texas,TRUE,,6165,20.9,48257,Kaufman,{'48257':100},FALSE,FALSE,America/Chicago
75163,32.16759,-96.11031,Trinidad,TX,Texas,TRUE,,2285,26.1,48213,Henderson,{'48213':100},FALSE,FALSE,America/Chicago
75164,33.06593,-96.30793,Josephine,TX,Texas,TRUE,,671,113.6,48085,Collin,{'48085':100},FALSE,FALSE,America/Chicago
75165,32.36912,-96.79744,Waxahachie,TX,Texas,TRUE,,37966,130.4,48139,Ellis,{'48139':100},FALSE,FALSE,America/Chicago
75166,33.01234,-96.45026,Lavon,TX,Texas,TRUE,,3070,89.7,48085,Collin,{'48085':100},FALSE,FALSE,America/Chicago
75167,32.35887,-96.91516,Waxahachie,TX,Texas,TRUE,,8436,33.3,48139,Ellis,{'48139':100},FALSE,FALSE,America/Chicago
75169,32.70454,-95.99657,Wills Point,TX,Texas,TRUE,,14644,26.4,48467,Van Zandt,"{'48231':12.26,'48257':4.3,'48467':83.45}",FALSE,FALSE,America/Chicago
75172,32.60482,-96.67516,Wilmer,TX,Texas,TRUE,,3956,131,48113,Dallas,{'48113':100},FALSE,FALSE,America/Chicago
75173,33.05923,-96.39106,Nevada,TX,Texas,TRUE,,4353,55.2,48085,Collin,{'48085':100},FALSE,FALSE,America/Chicago
75180,32.71894,-96.61839,Balch Springs,TX,Texas,TRUE,,23031,1160.4,48113,Dallas,{'48113':100},FALSE,FALSE,America/Chicago
75181,32.72694,-96.55517,Mesquite,TX,Texas,TRUE,,25908,568.5,48113,Dallas,{'48113':100},FALSE,FALSE,America/Chicago
75182,32.80014,-96.55405,Sunnyvale,TX,Texas,TRUE,,5118,112.4,48113,Dallas,{'48113':100},FALSE,FALSE,America/Chicago
75189,32.95188,-96.3119,Royse City,TX,Texas,TRUE,,22406,77.9,48397,Rockwall,"{'48085':10.13,'48231':23.9,'48397':65.97}",FALSE,FALSE,America/Chicago
75201,32.7878,-96.79948,Dallas,TX,Texas,TRUE,,9409,2509.3,48113,Dallas,{'48113':100},FALSE,FALSE,America/Chicago
75202,32.77924,-96.80472,Dallas,TX,Texas,TRUE,,1666,914.5,48113,Dallas,{'48113':100},FALSE,FALSE,America/Chicago
75203,32.74625,-96.80301,Dallas,TX,Texas,TRUE,,15721,1283.3,48113,Dallas,{'48113':100},FALSE,FALSE,America/Chicago
75204,32.80205,-96.78882,Dallas,TX,Texas,TRUE,,26279,3967,48113,Dallas,{'48113':100},FALSE,FALSE,America/Chicago
75205,32.83656,-96.79623,Dallas,TX,Texas,TRUE,,23061,2046.3,48113,Dallas,{'48113':100},FALSE,FALSE,America/Chicago
75206,32.83156,-96.77028,Dallas,TX,Texas,TRUE,,36248,3291.3,48113,Dallas,{'48113':100},FALSE,FALSE,America/Chicago
75207,32.78676,-96.82139,Dallas,TX,Texas,TRUE,,9648,968.2,48113,Dallas,{'48113':100},FALSE,FALSE,America/Chicago
75208,32.75373,-96.83986,Dallas,TX,Texas,TRUE,,30171,1960.9,48113,Dallas,{'48113':100},FALSE,FALSE,America/Chicago
75209,32.84885,-96.82587,Dallas,TX,Texas,TRUE,,13653,1491.3,48113,Dallas,{'48113':100},FALSE,FALSE,America/Chicago
75210,32.77135,-96.74596,Dallas,TX,Texas,TRUE,,7482,1275.2,48113,Dallas,{'48113':100},FALSE,FALSE,America/Chicago
75211,32.73491,-96.903,Dallas,TX,Texas,TRUE,,73146,1600.5,48113,Dallas,{'48113':100},FALSE,FALSE,America/Chicago
75212,32.78137,-96.87917,Dallas,TX,Texas,TRUE,,24884,934.5,48113,Dallas,{'48113':100},FALSE,FALSE,America/Chicago
75214,32.82867,-96.74542,Dallas,TX,Texas,TRUE,,32950,1758,48113,Dallas,{'48113':100},FALSE,FALSE,America/Chicago
75215,32.75075,-96.75806,Dallas,TX,Texas,TRUE,,14648,672.1,48113,Dallas,{'48113':100},FALSE,FALSE,America/Chicago
75216,32.71162,-96.78369,Dallas,TX,Texas,TRUE,,49416,1305.5,48113,Dallas,{'48113':100},FALSE,FALSE,America/Chicago
75217,32.71215,-96.68116,Dallas,TX,Texas,TRUE,,80324,1135,48113,Dallas,{'48113':100},FALSE,FALSE,America/Chicago
75218,32.84154,-96.70236,Dallas,TX,Texas,TRUE,,21665,1197.1,48113,Dallas,{'48113':100},FALSE,FALSE,America/Chicago
75219,32.81179,-96.81294,Dallas,TX,Texas,TRUE,,22124,3897.5,48113,Dallas,{'48113':100},FALSE,FALSE,America/Chicago
75220,32.86664,-96.87615,Dallas,TX,Texas,TRUE,,41891,1429,48113,Dallas,{'48113':100},FALSE,FALSE,America/Chicago
75223,32.79223,-96.74399,Dallas,TX,Texas,TRUE,,13947,1559.8,48113,Dallas,{'48113':100},FALSE,FALSE,America/Chicago
75224,32.71104,-96.83991,Dallas,TX,Texas,TRUE,,34034,2249.3,48113,Dallas,{'48113':100},FALSE,FALSE,America/Chicago
75225,32.8652,-96.79097,Dallas,TX,Texas,TRUE,,20892,1708.8,48113,Dallas,{'48113':100},FALSE,FALSE,America/Chicago
75226,32.78278,-96.77641,Dallas,TX,Texas,TRUE,,3506,1208.7,48113,Dallas,{'48113':100},FALSE,FALSE,America/Chicago
75227,32.77001,-96.68728,Dallas,TX,Texas,TRUE,,55029,1864.3,48113,Dallas,{'48113':100},FALSE,FALSE,America/Chicago
75228,32.82444,-96.67995,Dallas,TX,Texas,TRUE,,66551,2252.6,48113,Dallas,{'48113':100},FALSE,FALSE,America/Chicago
75229,32.89374,-96.86439,Dallas,TX,Texas,TRUE,,31571,972.7,48113,Dallas,{'48113':100},FALSE,FALSE,America/Chicago
75230,32.90237,-96.79205,Dallas,TX,Texas,TRUE,,26934,1435.4,48113,Dallas,{'48113':100},FALSE,FALSE,America/Chicago
75231,32.87767,-96.74979,Dallas,TX,Texas,TRUE,,37052,2537.8,48113,Dallas,{'48113':100},FALSE,FALSE,America/Chicago
75232,32.66094,-96.84019,Dallas,TX,Texas,TRUE,,28682,1339.3,48113,Dallas,{'48113':100},FALSE,FALSE,America/Chicago
75233,32.70435,-96.87297,Dallas,TX,Texas,TRUE,,14043,1565.7,48113,Dallas,{'48113':100},FALSE,FALSE,America/Chicago
75234,32.92366,-96.89042,Dallas,TX,Texas,TRUE,,28794,1073.1,48113,Dallas,{'48113':100},FALSE,FALSE,America/Chicago
75235,32.83251,-96.84851,Dallas,TX,Texas,TRUE,,17177,986.9,48113,Dallas,{'48113':100},FALSE,FALSE,America/Chicago
75236,32.68557,-96.93576,Dallas,TX,Texas,TRUE,,15949,493.1,48113,Dallas,{'48113':100},FALSE,FALSE,America/Chicago
75237,32.66562,-96.87309,Dallas,TX,Texas,TRUE,,17101,992.9,48113,Dallas,{'48113':100},FALSE,FALSE,America/Chicago
75238,32.87853,-96.70782,Dallas,TX,Texas,TRUE,,30483,1789.6,48113,Dallas,{'48113':100},FALSE,FALSE,America/Chicago
75240,32.93181,-96.78852,Dallas,TX,Texas,TRUE,,24296,2487,48113,Dallas,{'48113':100},FALSE,FALSE,America/Chicago
75241,32.66571,-96.75906,Dallas,TX,Texas,TRUE,,27066,388.9,48113,Dallas,{'48113':100},FALSE,FALSE,America/Chicago
75243,32.91211,-96.73563,Dallas,TX,Texas,TRUE,,55406,2459,48113,Dallas,{'48113':100},FALSE,FALSE,America/Chicago
75244,32.92541,-96.83663,Dallas,TX,Texas,TRUE,,13266,1110.9,48113,Dallas,{'48113':100},FALSE,FALSE,America/Chicago
75246,32.79292,-96.7733,Dallas,TX,Texas,TRUE,,2770,2367.9,48113,Dallas,{'48113':100},FALSE,FALSE,America/Chicago
75247,32.81358,-96.87749,Dallas,TX,Texas,TRUE,,468,27.6,48113,Dallas,{'48113':100},FALSE,FALSE,America/Chicago
75248,32.96958,-96.79524,Dallas,TX,Texas,TRUE,,33395,1744.4,48113,Dallas,"{'48085':0.71,'48113':99.29}",FALSE,FALSE,America/Chicago
75249,32.64442,-96.9588,Dallas,TX,Texas,TRUE,,13373,1123.1,48113,Dallas,{'48113':100},FALSE,FALSE,America/Chicago
75251,32.91901,-96.77193,Dallas,TX,Texas,TRUE,,2331,2048.5,48113,Dallas,{'48113':100},FALSE,FALSE,America/Chicago
75252,32.99728,-96.79091,Dallas,TX,Texas,TRUE,,24112,1845.3,48085,Collin,"{'48085':97.44,'48113':2.56}",FALSE,FALSE,America/Chicago
75253,32.67499,-96.61287,Dallas,TX,Texas,TRUE,,18450,525.9,48113,Dallas,{'48113':100},FALSE,FALSE,America/Chicago
75254,32.94562,-96.80137,Dallas,TX,Texas,TRUE,,23253,2703.5,48113,Dallas,{'48113':100},FALSE,FALSE,America/Chicago
75270,32.78119,-96.80224,Dallas,TX,Texas,TRUE,,0,0,48113,Dallas,{'48113':0},FALSE,FALSE,America/Chicago
75287,33.00032,-96.84111,Dallas,TX,Texas,TRUE,,49004,3379.8,48121,Denton,"{'48085':47.25,'48113':0,'48121':52.75}",FALSE,FALSE,America/Chicago
75390,32.81415,-96.84082,Dallas,TX,Texas,TRUE,,0,0,48113,Dallas,{'48113':0},FALSE,FALSE,America/Chicago
75401,33.18426,-96.11951,Greenville,TX,Texas,TRUE,,18552,68.9,48231,Hunt,{'48231':100},FALSE,FALSE,America/Chicago
75402,33.06878,-96.08534,Greenville,TX,Texas,TRUE,,15920,68.1,48231,Hunt,{'48231':100},FALSE,FALSE,America/Chicago
75407,33.15089,-96.48796,Princeton,TX,Texas,TRUE,,14120,110.4,48085,Collin,{'48085':100},FALSE,FALSE,America/Chicago
75409,33.35197,-96.52735,Anna,TX,Texas,TRUE,,11831,57,48085,Collin,{'48085':100},FALSE,FALSE,America/Chicago
75410,32.79101,-95.63456,Alba,TX,Texas,TRUE,,4334,20.3,48499,Wood,"{'48379':17.84,'48499':82.16}",FALSE,FALSE,America/Chicago
75411,33.86196,-95.64855,Arthur City,TX,Texas,TRUE,,1118,5.5,48277,Lamar,{'48277':100},FALSE,FALSE,America/Chicago
75412,33.79984,-95.15232,Bagwell,TX,Texas,TRUE,,778,2,48387,Red River,{'48387':100},FALSE,FALSE,America/Chicago
75413,33.44141,-96.17913,Bailey,TX,Texas,TRUE,,305,83.9,48147,Fannin,{'48147':100},FALSE,FALSE,America/Chicago
75414,33.62333,-96.43179,Bells,TX,Texas,TRUE,,3136,24.8,48181,Grayson,{'48181':100},FALSE,FALSE,America/Chicago
75415,33.45984,-95.75129,Ben Franklin,TX,Texas,TRUE,,144,5.3,48119,Delta,{'48119':100},FALSE,FALSE,America/Chicago
75416,33.67825,-95.35442,Blossom,TX,Texas,TRUE,,2893,15.1,48277,Lamar,{'48277':100},FALSE,FALSE,America/Chicago
75417,33.43887,-95.13134,Bogata,TX,Texas,TRUE,,2456,5.8,48387,Red River,{'48387':100},FALSE,FALSE,America/Chicago
75418,33.57268,-96.17766,Bonham,TX,Texas,TRUE,,14411,39.8,48147,Fannin,{'48147':100},FALSE,FALSE,America/Chicago
75420,33.05301,-95.72612,Brashear,TX,Texas,TRUE,,1076,11.4,48223,Hopkins,{'48223':100},FALSE,FALSE,America/Chicago
75421,33.64663,-95.71719,Brookston,TX,Texas,TRUE,,1003,7.1,48277,Lamar,{'48277':100},FALSE,FALSE,America/Chicago
75422,33.13937,-95.93198,Campbell,TX,Texas,TRUE,,2883,15.2,48231,Hunt,{'48231':100},FALSE,FALSE,America/Chicago
75423,33.28614,-96.19999,Celeste,TX,Texas,TRUE,,2982,14.2,48231,Hunt,"{'48147':1.11,'48231':98.89}",FALSE,FALSE,America/Chicago
75424,33.30659,-96.38587,Blue Ridge,TX,Texas,TRUE,,3297,19,48085,Collin,"{'48085':93.9,'48147':6.1}",FALSE,FALSE,America/Chicago
75426,33.65539,-95.00488,Clarksville,TX,Texas,TRUE,,5301,6.3,48387,Red River,{'48387':100},FALSE,FALSE,America/Chicago
75428,33.26847,-95.91606,Commerce,TX,Texas,TRUE,,10089,45.3,48231,Hunt,"{'48119':2.73,'48231':97.27}",FALSE,FALSE,America/Chicago
75431,33.01166,-95.46369,Como,TX,Texas,TRUE,,2052,13.5,48223,Hopkins,"{'48223':88.45,'48499':11.55}",FALSE,FALSE,America/Chicago
75432,33.39603,-95.67444,Cooper,TX,Texas,TRUE,,3323,12.1,48119,Delta,{'48119':100},FALSE,FALSE,America/Chicago
75433,33.10765,-95.80425,Cumby,TX,Texas,TRUE,,2773,10.3,48223,Hopkins,{'48223':100},FALSE,FALSE,America/Chicago
75435,33.48223,-95.31355,Deport,TX,Texas,TRUE,,1185,6.8,48277,Lamar,"{'48277':84.98,'48387':15.02}",FALSE,FALSE,America/Chicago
75436,33.71282,-95.25156,Detroit,TX,Texas,TRUE,,1876,4.4,48387,Red River,"{'48277':4.48,'48387':95.52}",FALSE,FALSE,America/Chicago
75437,33.25841,-95.469,Dike,TX,Texas,TRUE,,1078,6.9,48223,Hopkins,{'48223':100},FALSE,FALSE,America/Chicago
75438,33.60829,-96.06541,Dodd City,TX,Texas,TRUE,,972,8.2,48147,Fannin,{'48147':100},FALSE,FALSE,America/Chicago
75439,33.55208,-96.27709,Ector,TX,Texas,TRUE,,868,24.1,48147,Fannin,{'48147':100},FALSE,FALSE,America/Chicago
75440,32.87828,-95.75557,Emory,TX,Texas,TRUE,,6350,21.3,48379,Rains,"{'48379':97.1,'48499':2.9}",FALSE,FALSE,America/Chicago
75441,33.43231,-95.65334,Enloe,TX,Texas,TRUE,,142,7.8,48119,Delta,{'48119':100},FALSE,FALSE,America/Chicago
75442,33.17365,-96.35309,Farmersville,TX,Texas,TRUE,,8858,32.4,48085,Collin,"{'48085':89.03,'48231':10.97}",FALSE,FALSE,America/Chicago
75446,33.61208,-95.89414,Honey Grove,TX,Texas,TRUE,,3180,7,48147,Fannin,"{'48147':87.67,'48277':12.33}",FALSE,FALSE,America/Chicago
75447,33.76513,-96.1177,Ivanhoe,TX,Texas,TRUE,,1080,7.8,48147,Fannin,{'48147':100},FALSE,FALSE,America/Chicago
75448,33.31494,-95.7933,Klondike,TX,Texas,TRUE,,655,8.9,48119,Delta,{'48119':100},FALSE,FALSE,America/Chicago
75449,33.42067,-95.94604,Ladonia,TX,Texas,TRUE,,1186,5.6,48147,Fannin,"{'48147':83.39,'48231':16.61}",FALSE,FALSE,America/Chicago
75450,33.4051,-95.47847,Lake Creek,TX,Texas,TRUE,,331,2.1,48119,Delta,{'48119':100},FALSE,FALSE,America/Chicago
75451,32.96633,-95.12119,Leesburg,TX,Texas,TRUE,,1211,13.4,48063,Camp,"{'48063':95.46,'48499':4.54}",FALSE,FALSE,America/Chicago
75452,33.39324,-96.24331,Leonard,TX,Texas,TRUE,,4090,20.7,48147,Fannin,"{'48085':1.98,'48147':93.79,'48231':4.23}",FALSE,FALSE,America/Chicago
75453,32.99671,-95.93275,Lone Oak,TX,Texas,TRUE,,3255,16.8,48231,Hunt,"{'48223':3.47,'48231':82.92,'48379':13.61}",FALSE,FALSE,America/Chicago
75454,33.28335,-96.56323,Melissa,TX,Texas,TRUE,,5699,114.8,48085,Collin,{'48085':100},FALSE,FALSE,America/Chicago
75455,33.21697,-94.97819,Mount Pleasant,TX,Texas,TRUE,,28293,37,48449,Titus,"{'48159':0.25,'48449':99.75}",FALSE,FALSE,America/Chicago
75457,33.17279,-95.21222,Mount Vernon,TX,Texas,TRUE,,6522,18.7,48159,Franklin,{'48159':100},FALSE,FALSE,America/Chicago
75459,33.53109,-96.67755,Howe,TX,Texas,TRUE,,4326,21,48181,Grayson,{'48181':100},FALSE,FALSE,America/Chicago
75460,33.65811,-95.60422,Paris,TX,Texas,TRUE,,23592,100.5,48277,Lamar,{'48277':100},FALSE,FALSE,America/Chicago
75462,33.62385,-95.48378,Paris,TX,Texas,TRUE,,11350,21.9,48277,Lamar,{'48277':100},FALSE,FALSE,America/Chicago
75468,33.51316,-95.40653,Pattonville,TX,Texas,TRUE,,888,6.8,48277,Lamar,{'48277':100},FALSE,FALSE,America/Chicago
75469,33.42161,-95.8146,Pecan Gap,TX,Texas,TRUE,,371,4.7,48119,Delta,"{'48119':97.3,'48147':2.7}",FALSE,FALSE,America/Chicago
75470,33.58231,-95.80822,Petty,TX,Texas,TRUE,,288,5.8,48277,Lamar,{'48277':100},FALSE,FALSE,America/Chicago
75471,33.03945,-95.38927,Pickton,TX,Texas,TRUE,,1424,11.4,48223,Hopkins,"{'48223':96.49,'48499':3.51}",FALSE,FALSE,America/Chicago
75472,32.88593,-95.87796,Point,TX,Texas,TRUE,,3548,21.5,48379,Rains,"{'48223':0.45,'48379':99.55}",FALSE,FALSE,America/Chicago
75473,33.81433,-95.48986,Powderly,TX,Texas,TRUE,,3855,17.9,48277,Lamar,{'48277':100},FALSE,FALSE,America/Chicago
75474,32.91953,-96.10899,Quinlan,TX,Texas,TRUE,,14882,53.5,48231,Hunt,"{'48231':98.63,'48257':1.37}",FALSE,FALSE,America/Chicago
75475,33.47484,-96.23822,Randolph,TX,Texas,TRUE,,129,24.2,48147,Fannin,{'48147':100},FALSE,FALSE,America/Chicago
75476,33.70586,-96.24354,Ravenna,TX,Texas,TRUE,,1304,9.7,48147,Fannin,{'48147':100},FALSE,FALSE,America/Chicago
75477,33.53286,-95.73471,Roxton,TX,Texas,TRUE,,977,6.2,48277,Lamar,{'48277':100},FALSE,FALSE,America/Chicago
75478,33.17445,-95.35751,Saltillo,TX,Texas,TRUE,,932,6.7,48223,Hopkins,"{'48159':1.5,'48223':98.5}",FALSE,FALSE,America/Chicago
75479,33.62166,-96.33921,Savoy,TX,Texas,TRUE,,1849,14.1,48147,Fannin,{'48147':100},FALSE,FALSE,America/Chicago
75480,33.02472,-95.19411,Scroggins,TX,Texas,TRUE,,1646,19.6,48159,Franklin,{'48159':100},FALSE,FALSE,America/Chicago
75481,33.31522,-95.37374,Sulphur Bluff,TX,Texas,TRUE,,395,2.2,48223,Hopkins,"{'48159':19.24,'48223':80.76}",FALSE,FALSE,America/Chicago
75482,33.16816,-95.60681,Sulphur Springs,TX,Texas,TRUE,,24385,30.1,48223,Hopkins,{'48223':100},FALSE,FALSE,America/Chicago
75486,33.75828,-95.7486,Sumner,TX,Texas,TRUE,,2346,8.7,48277,Lamar,{'48277':100},FALSE,FALSE,America/Chicago
75487,33.33605,-95.16159,Talco,TX,Texas,TRUE,,1541,5.9,48449,Titus,"{'48159':40.95,'48449':59.05}",FALSE,FALSE,America/Chicago
75488,33.77722,-95.98748,Telephone,TX,Texas,TRUE,,1161,3.8,48147,Fannin,{'48147':100},FALSE,FALSE,America/Chicago
75489,33.51927,-96.48435,Tom Bean,TX,Texas,TRUE,,993,316.5,48181,Grayson,{'48181':100},FALSE,FALSE,America/Chicago
75490,33.43427,-96.31339,Trenton,TX,Texas,TRUE,,2211,29.1,48147,Fannin,"{'48147':98.51,'48181':1.49}",FALSE,FALSE,America/Chicago
75491,33.49638,-96.39751,Whitewright,TX,Texas,TRUE,,4801,19.4,48181,Grayson,"{'48085':0.29,'48147':16.14,'48181':83.57}",FALSE,FALSE,America/Chicago
75492,33.58768,-95.9955,Windom,TX,Texas,TRUE,,516,4.7,48147,Fannin,{'48147':100},FALSE,FALSE,America/Chicago
75493,33.13883,-95.10854,Winfield,TX,Texas,TRUE,,611,43.7,48449,Titus,{'48449':100},FALSE,FALSE,America/Chicago
75494,32.90938,-95.26235,Winnsboro,TX,Texas,TRUE,,10862,18.5,48223,Hopkins,"{'48159':15.15,'48223':8.47,'48459':1.1,'48499':75.27}",FALSE,FALSE,America/Chicago
75495,33.43311,-96.55161,Van Alstyne,TX,Texas,TRUE,,7095,40.7,48181,Grayson,"{'48085':4.1,'48181':95.9}",FALSE,FALSE,America/Chicago
75496,33.35984,-96.06298,Wolfe City,TX,Texas,TRUE,,3351,10.5,48231,Hunt,"{'48147':15.22,'48231':84.78}",FALSE,FALSE,America/Chicago
75497,32.92201,-95.57201,Yantis,TX,Texas,TRUE,,3350,20,48499,Wood,"{'48223':11.16,'48499':88.84}",FALSE,FALSE,America/Chicago
75501,33.37363,-94.13142,Texarkana,TX,Texas,TRUE,,36298,147.2,48037,Bowie,{'48037':100},FALSE,FALSE,America/Chicago
75503,33.51343,-94.13057,Texarkana,TX,Texas,TRUE,,24379,119.2,48037,Bowie,{'48037':100},FALSE,FALSE,America/Chicago
75550,33.49406,-94.88241,Annona,TX,Texas,TRUE,,808,3.6,48387,Red River,{'48387':100},FALSE,FALSE,America/Chicago
75551,33.11556,-94.20197,Atlanta,TX,Texas,TRUE,,11007,25.7,48067,Cass,{'48067':100},FALSE,FALSE,America/Chicago
75554,33.5549,-94.7795,Avery,TX,Texas,TRUE,,1806,4.3,48387,Red River,"{'48037':14.34,'48387':85.66}",FALSE,FALSE,America/Chicago
75555,32.94688,-94.13831,Bivins,TX,Texas,TRUE,,1611,5.6,48067,Cass,"{'48067':88.21,'48315':11.79}",FALSE,FALSE,America/Chicago
75556,33.16112,-94.06127,Bloomburg,TX,Texas,TRUE,,1133,18.2,48067,Cass,"{'05091':2.29,'48067':97.71}",FALSE,FALSE,America/Chicago
75558,33.2419,-94.85805,Cookville,TX,Texas,TRUE,,1636,12.6,48449,Titus,{'48449':100},FALSE,FALSE,America/Chicago
75559,33.50992,-94.62748,De Kalb,TX,Texas,TRUE,,5568,8.2,48037,Bowie,{'48037':100},FALSE,FALSE,America/Chicago
75560,33.18696,-94.36878,Douglassville,TX,Texas,TRUE,,1088,5.3,48067,Cass,{'48067':100},FALSE,FALSE,America/Chicago
75561,33.51333,-94.27783,Hooks,TX,Texas,TRUE,,5395,41.9,48037,Bowie,{'48037':100},FALSE,FALSE,America/Chicago
75562,32.92543,-94.24848,Kildare,TX,Texas,TRUE,,176,4.1,48067,Cass,{'48067':100},FALSE,FALSE,America/Chicago
75563,33.00609,-94.38963,Linden,TX,Texas,TRUE,,4282,10.2,48067,Cass,{'48067':100},FALSE,FALSE,America/Chicago
75565,32.93731,-94.07212,Mc Leod,TX,Texas,TRUE,,361,20,48067,Cass,{'48067':100},FALSE,FALSE,America/Chicago
75566,33.14819,-94.49175,Marietta,TX,Texas,TRUE,,782,6.3,48067,Cass,{'48067':100},FALSE,FALSE,America/Chicago
75567,33.31404,-94.31879,Maud,TX,Texas,TRUE,,4225,24.1,48037,Bowie,{'48037':100},FALSE,FALSE,America/Chicago
75568,33.20102,-94.59619,Naples,TX,Texas,TRUE,,2876,8.3,48343,Morris,"{'48067':31.22,'48343':68.78}",FALSE,FALSE,America/Chicago
75569,33.44147,-94.12646,Nash,TX,Texas,TRUE,,2874,369.4,48037,Bowie,{'48037':100},FALSE,FALSE,America/Chicago
75570,33.46196,-94.43753,New Boston,TX,Texas,TRUE,,11518,32.9,48037,Bowie,{'48037':100},FALSE,FALSE,America/Chicago
75571,33.20616,-94.764,Omaha,TX,Texas,TRUE,,2846,10.6,48343,Morris,"{'48343':97.4,'48449':2.6}",FALSE,FALSE,America/Chicago
75572,33.23153,-94.13216,Queen City,TX,Texas,TRUE,,3491,18.7,48067,Cass,{'48067':100},FALSE,FALSE,America/Chicago
75573,33.3423,-94.2373,Redwater,TX,Texas,TRUE,,181,7,48037,Bowie,{'48037':100},FALSE,FALSE,America/Chicago
75574,33.33097,-94.55347,Simms,TX,Texas,TRUE,,1868,6.8,48037,Bowie,{'48037':100},FALSE,FALSE,America/Chicago
75601,32.50854,-94.72407,Longview,TX,Texas,TRUE,,15849,654.6,48183,Gregg,"{'48183':89.08,'48203':10.92}",FALSE,FALSE,America/Chicago
75602,32.459,-94.65993,Longview,TX,Texas,TRUE,,23286,183.5,48183,Gregg,"{'48183':77.57,'48203':22.43}",FALSE,FALSE,America/Chicago
75603,32.39853,-94.7091,Longview,TX,Texas,TRUE,,5456,45.5,48183,Gregg,"{'48183':74.69,'48401':25.31}",FALSE,FALSE,America/Chicago
75604,32.50964,-94.82784,Longview,TX,Texas,TRUE,,29934,245.8,48183,Gregg,"{'48183':99.36,'48459':0.64}",FALSE,FALSE,America/Chicago
75605,32.58258,-94.72065,Longview,TX,Texas,TRUE,,27823,135.7,48183,Gregg,"{'48183':85.3,'48203':14.44,'48459':0.26}",FALSE,FALSE,America/Chicago
75630,32.87432,-94.5527,Avinger,TX,Texas,TRUE,,2588,11,48315,Marion,"{'48067':41.31,'48315':58.69}",FALSE,FALSE,America/Chicago
75631,32.24926,-94.45456,Beckville,TX,Texas,TRUE,,2787,9.2,48365,Panola,{'48365':100},FALSE,FALSE,America/Chicago
75633,32.12895,-94.27705,Carthage,TX,Texas,TRUE,,13977,16.7,48365,Panola,{'48365':100},FALSE,FALSE,America/Chicago
75638,33.02093,-94.73185,Daingerfield,TX,Texas,TRUE,,6036,26.3,48343,Morris,"{'48067':0.81,'48343':99.19}",FALSE,FALSE,America/Chicago
75639,32.29033,-94.16944,De Berry,TX,Texas,TRUE,,3460,7.8,48365,Panola,{'48365':100},FALSE,FALSE,America/Chicago
75640,32.71557,-94.68413,Diana,TX,Texas,TRUE,,4652,21.2,48459,Upshur,"{'48203':23.8,'48315':1.63,'48459':74.57}",FALSE,FALSE,America/Chicago
75641,32.37844,-94.57574,Easton,TX,Texas,TRUE,,223,25.9,48183,Gregg,"{'48183':68.16,'48401':31.84}",FALSE,FALSE,America/Chicago
75642,32.37152,-94.17658,Elysian Fields,TX,Texas,TRUE,,229,39.4,48203,Harrison,{'48203':100},FALSE,FALSE,America/Chicago
75643,32.01618,-94.36085,Gary,TX,Texas,TRUE,,2074,11.8,48365,Panola,"{'48365':97.06,'48419':2.94}",FALSE,FALSE,America/Chicago
75644,32.7951,-94.99552,Gilmer,TX,Texas,TRUE,,11444,23.6,48459,Upshur,{'48459':100},FALSE,FALSE,America/Chicago
75645,32.68749,-94.87407,Gilmer,TX,Texas,TRUE,,9778,26,48459,Upshur,"{'48183':0.78,'48459':99.22}",FALSE,FALSE,America/Chicago
75647,32.5189,-94.95133,Gladewater,TX,Texas,TRUE,,13196,67.1,48423,Smith,"{'48183':54.63,'48423':9.34,'48459':36.03}",FALSE,FALSE,America/Chicago
75650,32.51394,-94.55473,Hallsville,TX,Texas,TRUE,,8611,26.8,48203,Harrison,{'48203':100},FALSE,FALSE,America/Chicago
75651,32.67158,-94.53603,Harleton,TX,Texas,TRUE,,2189,14.4,48203,Harrison,"{'48203':97.26,'48315':2.74}",FALSE,FALSE,America/Chicago
75652,32.22989,-94.73272,Henderson,TX,Texas,TRUE,,16638,36.6,48401,Rusk,{'48401':100},FALSE,FALSE,America/Chicago
75654,32.08097,-94.8265,Henderson,TX,Texas,TRUE,,12417,23.6,48401,Rusk,"{'48073':0.12,'48401':99.88}",FALSE,FALSE,America/Chicago
75656,33.00551,-94.59071,Hughes Springs,TX,Texas,TRUE,,4804,17.3,48067,Cass,"{'48067':91.34,'48343':8.66}",FALSE,FALSE,America/Chicago
75657,32.7922,-94.306,Jefferson,TX,Texas,TRUE,,8246,9.5,48315,Marion,"{'48067':4.18,'48203':3.53,'48315':92.29}",FALSE,FALSE,America/Chicago
75661,32.63754,-94.16153,Karnack,TX,Texas,TRUE,,2807,8.5,48203,Harrison,{'48203':100},FALSE,FALSE,America/Chicago
75662,32.38399,-94.87015,Kilgore,TX,Texas,TRUE,,24536,74.3,48183,Gregg,"{'48183':72.11,'48401':26.09,'48423':1.79}",FALSE,FALSE,America/Chicago
75667,31.98543,-94.84004,Laneville,TX,Texas,TRUE,,1021,4.7,48401,Rusk,{'48401':100},FALSE,FALSE,America/Chicago
75668,32.90448,-94.6836,Lone Star,TX,Texas,TRUE,,1993,33.8,48343,Morris,"{'48315':13.95,'48343':86.05}",FALSE,FALSE,America/Chicago
75669,32.03375,-94.56395,Long Branch,TX,Texas,TRUE,,606,3.7,48365,Panola,"{'48365':79.04,'48401':20.96}",FALSE,FALSE,America/Chicago
75670,32.57299,-94.42297,Marshall,TX,Texas,TRUE,,17290,54.3,48203,Harrison,{'48203':100},FALSE,FALSE,America/Chicago
75672,32.46883,-94.29489,Marshall,TX,Texas,TRUE,,17097,27.8,48203,Harrison,{'48203':100},FALSE,FALSE,America/Chicago
75681,31.92844,-94.69194,Mount Enterprise,TX,Texas,TRUE,,2562,7.7,48401,Rusk,{'48401':100},FALSE,FALSE,America/Chicago
75682,32.25033,-94.93659,New London,TX,Texas,TRUE,,473,59.4,48401,Rusk,{'48401':100},FALSE,FALSE,America/Chicago
75683,32.82301,-94.73701,Ore City,TX,Texas,TRUE,,3914,26.8,48459,Upshur,"{'48315':20.77,'48459':79.23}",FALSE,FALSE,America/Chicago
75684,32.27336,-94.93893,Overton,TX,Texas,TRUE,,7548,28.9,48401,Rusk,"{'48401':89.22,'48423':10.78}",FALSE,FALSE,America/Chicago
75686,32.96953,-94.95017,Pittsburg,TX,Texas,TRUE,,12985,21.6,48063,Camp,"{'48063':86.6,'48343':0.51,'48449':6.78,'48459':6.11}",FALSE,FALSE,America/Chicago
75691,32.31327,-94.55067,Tatum,TX,Texas,TRUE,,4219,17.5,48401,Rusk,"{'48365':6.76,'48401':93.24}",FALSE,FALSE,America/Chicago
75692,32.48038,-94.11629,Waskom,TX,Texas,TRUE,,5098,21.9,48203,Harrison,{'48203':100},FALSE,FALSE,America/Chicago
75693,32.53385,-94.85985,White Oak,TX,Texas,TRUE,,6869,241.5,48183,Gregg,{'48183':100},FALSE,FALSE,America/Chicago
75701,32.32329,-95.30091,Tyler,TX,Texas,TRUE,,34373,844.4,48423,Smith,{'48423':100},FALSE,FALSE,America/Chicago
75702,32.36285,-95.31526,Tyler,TX,Texas,TRUE,,27069,764.7,48423,Smith,{'48423':100},FALSE,FALSE,America/Chicago
75703,32.23855,-95.32063,Tyler,TX,Texas,TRUE,,37166,264.5,48423,Smith,{'48423':100},FALSE,FALSE,America/Chicago
75704,32.40753,-95.44131,Tyler,TX,Texas,TRUE,,8684,50,48423,Smith,{'48423':100},FALSE,FALSE,America/Chicago
75705,32.36603,-95.10277,Tyler,TX,Texas,TRUE,,2168,30.2,48423,Smith,{'48423':100},FALSE,FALSE,America/Chicago
75706,32.46601,-95.30761,Tyler,TX,Texas,TRUE,,8771,45.1,48423,Smith,{'48423':100},FALSE,FALSE,America/Chicago
75707,32.30356,-95.17689,Tyler,TX,Texas,TRUE,,13711,102.5,48423,Smith,{'48423':100},FALSE,FALSE,America/Chicago
75708,32.41635,-95.20958,Tyler,TX,Texas,TRUE,,7156,50.5,48423,Smith,{'48423':100},FALSE,FALSE,America/Chicago
75709,32.31072,-95.39289,Tyler,TX,Texas,TRUE,,5062,94.3,48423,Smith,{'48423':100},FALSE,FALSE,America/Chicago
75750,32.27445,-95.07492,Arp,TX,Texas,TRUE,,3937,32.5,48423,Smith,{'48423':100},FALSE,FALSE,America/Chicago
75751,32.09642,-95.9083,Athens,TX,Texas,TRUE,,17253,41.4,48213,Henderson,"{'48001':1.53,'48213':98.47}",FALSE,FALSE,America/Chicago
75752,32.24451,-95.80858,Athens,TX,Texas,TRUE,,6986,18.2,48213,Henderson,"{'48213':95.51,'48467':4.49}",FALSE,FALSE,America/Chicago
75754,32.4258,-95.66521,Ben Wheeler,TX,Texas,TRUE,,5783,18,48467,Van Zandt,{'48467':100},FALSE,FALSE,America/Chicago
75755,32.63314,-95.08597,Big Sandy,TX,Texas,TRUE,,5719,21.1,48459,Upshur,"{'48459':98.6,'48499':1.4}",FALSE,FALSE,America/Chicago
75756,32.30402,-95.60002,Brownsboro,TX,Texas,TRUE,,4002,22.5,48213,Henderson,"{'48213':97.18,'48467':2.82}",FALSE,FALSE,America/Chicago
75757,32.11464,-95.349,Bullard,TX,Texas,TRUE,,10022,44.3,48423,Smith,"{'48073':41.02,'48423':58.98}",FALSE,FALSE,America/Chicago
75758,32.27542,-95.50733,Chandler,TX,Texas,TRUE,,9072,70.9,48213,Henderson,"{'48213':93.07,'48467':6.93}",FALSE,FALSE,America/Chicago
75759,32.03594,-95.41876,Cuney,TX,Texas,TRUE,,141,24.2,48073,Cherokee,{'48073':100},FALSE,FALSE,America/Chicago
75760,31.80409,-94.8556,Cushing,TX,Texas,TRUE,,2614,7.8,48347,Nacogdoches,"{'48347':86.15,'48401':13.85}",FALSE,FALSE,America/Chicago
75762,32.21684,-95.4138,Flint,TX,Texas,TRUE,,12466,110.5,48423,Smith,{'48423':100},FALSE,FALSE,America/Chicago
75763,32.04188,-95.52213,Frankston,TX,Texas,TRUE,,6005,21.5,48001,Anderson,"{'48001':51.64,'48213':48.36}",FALSE,FALSE,America/Chicago
75764,31.89548,-95.14371,Gallatin,TX,Texas,TRUE,,233,71.2,48073,Cherokee,{'48073':100},FALSE,FALSE,America/Chicago
75765,32.64159,-95.23516,Hawkins,TX,Texas,TRUE,,7607,28.8,48499,Wood,"{'48459':0.26,'48499':99.74}",FALSE,FALSE,America/Chicago
75766,31.9462,-95.25704,Jacksonville,TX,Texas,TRUE,,26388,33.4,48073,Cherokee,{'48073':100},FALSE,FALSE,America/Chicago
75770,32.13856,-95.64876,Larue,TX,Texas,TRUE,,2776,8.9,48213,Henderson,{'48213':100},FALSE,FALSE,America/Chicago
75771,32.5361,-95.43456,Lindale,TX,Texas,TRUE,,18361,49.2,48423,Smith,{'48423':100},FALSE,FALSE,America/Chicago
75773,32.67876,-95.4459,Mineola,TX,Texas,TRUE,,12791,27.7,48499,Wood,"{'48423':7.44,'48499':92.56}",FALSE,FALSE,America/Chicago
75778,32.3023,-95.71185,Murchison,TX,Texas,TRUE,,3254,22.3,48213,Henderson,"{'48213':66.53,'48467':33.47}",FALSE,FALSE,America/Chicago
75779,31.86518,-95.48588,Neches,TX,Texas,TRUE,,122,54.7,48001,Anderson,{'48001':100},FALSE,FALSE,America/Chicago
75780,31.99106,-95.09184,New Summerfield,TX,Texas,TRUE,,312,95.8,48073,Cherokee,{'48073':100},FALSE,FALSE,America/Chicago
75783,32.82157,-95.42366,Quitman,TX,Texas,TRUE,,7219,22.9,48499,Wood,{'48499':100},FALSE,FALSE,America/Chicago
75784,31.8737,-94.97332,Reklaw,TX,Texas,TRUE,,658,6.6,48073,Cherokee,"{'48073':51.98,'48401':48.02}",FALSE,FALSE,America/Chicago
75785,31.77995,-95.17381,Rusk,TX,Texas,TRUE,,11263,16.3,48073,Cherokee,{'48073':100},FALSE,FALSE,America/Chicago
75788,31.82598,-94.92588,Sacul,TX,Texas,TRUE,,126,14.3,48347,Nacogdoches,{'48347':100},FALSE,FALSE,America/Chicago
75789,32.10912,-95.09694,Troup,TX,Texas,TRUE,,7593,15.5,48423,Smith,"{'48073':37.11,'48401':0.67,'48423':62.22}",FALSE,FALSE,America/Chicago
75790,32.53227,-95.64262,Van,TX,Texas,TRUE,,4203,44.2,48467,Van Zandt,"{'48423':1.76,'48467':98.24}",FALSE,FALSE,America/Chicago
75791,32.22164,-95.22053,Whitehouse,TX,Texas,TRUE,,13125,131.5,48423,Smith,{'48423':100},FALSE,FALSE,America/Chicago
75792,32.47669,-95.10197,Winona,TX,Texas,TRUE,,3518,14.4,48423,Smith,{'48423':100},FALSE,FALSE,America/Chicago
75801,31.73458,-95.53316,Palestine,TX,Texas,TRUE,,16799,30.2,48001,Anderson,{'48001':100},FALSE,FALSE,America/Chicago
75803,31.87441,-95.66914,Palestine,TX,Texas,TRUE,,22397,26,48001,Anderson,{'48001':100},FALSE,FALSE,America/Chicago
75831,31.46233,-96.01473,Buffalo,TX,Texas,TRUE,,5386,8.2,48289,Leon,"{'48161':16.49,'48289':83.51}",FALSE,FALSE,America/Chicago
75832,31.91903,-95.9946,Cayuga,TX,Texas,TRUE,,66,1.5,48001,Anderson,{'48001':100},FALSE,FALSE,America/Chicago
75833,31.26718,-95.83899,Centerville,TX,Texas,TRUE,,3324,5.2,48289,Leon,{'48289':100},FALSE,FALSE,America/Chicago
75835,31.2935,-95.49194,Crockett,TX,Texas,TRUE,,12012,10.3,48225,Houston,{'48225':100},FALSE,FALSE,America/Chicago
75838,31.47744,-96.22823,Donie,TX,Texas,TRUE,,666,3.7,48161,Freestone,"{'48161':70.57,'48293':29.43}",FALSE,FALSE,America/Chicago
75839,31.606,-95.5779,Elkhart,TX,Texas,TRUE,,5069,13.3,48001,Anderson,"{'48001':99.31,'48225':0.69}",FALSE,FALSE,America/Chicago
75840,31.78236,-96.089,Fairfield,TX,Texas,TRUE,,7076,10,48161,Freestone,{'48161':100},FALSE,FALSE,America/Chicago
75844,31.51376,-95.43842,Grapeland,TX,Texas,TRUE,,5718,6.1,48225,Houston,"{'48001':12.15,'48225':87.85}",FALSE,FALSE,America/Chicago
75845,31.10075,-95.08953,Groveton,TX,Texas,TRUE,,3259,4,48455,Trinity,{'48455':100},FALSE,FALSE,America/Chicago
75846,31.33863,-96.16545,Jewett,TX,Texas,TRUE,,2718,7.2,48289,Leon,"{'48289':83.92,'48293':16.08}",FALSE,FALSE,America/Chicago
75847,31.35383,-95.14609,Kennard,TX,Texas,TRUE,,1859,3,48225,Houston,"{'48225':85.85,'48455':14.15}",FALSE,FALSE,America/Chicago
75848,31.76525,-96.32993,Kirvin,TX,Texas,TRUE,,92,179.6,48161,Freestone,{'48161':100},FALSE,FALSE,America/Chicago
75849,31.4175,-95.48166,Latexo,TX,Texas,TRUE,,75,15.2,48225,Houston,{'48225':100},FALSE,FALSE,America/Chicago
75850,31.13743,-95.91682,Leona,TX,Texas,TRUE,,671,3.6,48289,Leon,{'48289':100},FALSE,FALSE,America/Chicago
75851,31.09325,-95.49714,Lovelady,TX,Texas,TRUE,,5050,7.5,48225,Houston,"{'48225':96.38,'48455':3.62}",FALSE,FALSE,America/Chicago
75852,30.96687,-95.71167,Midway,TX,Texas,TRUE,,3762,8.4,48313,Madison,"{'48313':96.62,'48471':3.38}",FALSE,FALSE,America/Chicago
75853,31.93692,-95.81322,Montalba,TX,Texas,TRUE,,963,5,48001,Anderson,{'48001':100},FALSE,FALSE,America/Chicago
75855,31.5622,-95.85025,Oakwood,TX,Texas,TRUE,,2369,3.4,48289,Leon,"{'48161':45.59,'48289':54.41}",FALSE,FALSE,America/Chicago
75856,31.18888,-95.25573,Pennington,TX,Texas,TRUE,,196,3,48455,Trinity,"{'48225':41.33,'48455':58.67}",FALSE,FALSE,America/Chicago
75858,31.39076,-95.12694,Ratcliff,TX,Texas,TRUE,,43,36.1,48225,Houston,{'48225':100},FALSE,FALSE,America/Chicago
75859,31.8816,-96.24023,Streetman,TX,Texas,TRUE,,1923,6.3,48161,Freestone,"{'48161':83,'48349':17}",FALSE,FALSE,America/Chicago
75860,31.6209,-96.24864,Teague,TX,Texas,TRUE,,6644,15.1,48161,Freestone,{'48161':100},FALSE,FALSE,America/Chicago
75861,31.85323,-95.89241,Tennessee Colony,TX,Texas,TRUE,,9017,30.4,48001,Anderson,{'48001':100},FALSE,FALSE,America/Chicago
75862,30.95984,-95.32384,Trinity,TX,Texas,TRUE,,10091,15.8,48455,Trinity,"{'48455':95.92,'48471':4.08}",FALSE,FALSE,America/Chicago
75901,31.30134,-94.65552,Lufkin,TX,Texas,TRUE,,29036,69.4,48005,Angelina,{'48005':100},FALSE,FALSE,America/Chicago
75904,31.33969,-94.82173,Lufkin,TX,Texas,TRUE,,34004,92.3,48005,Angelina,"{'48005':99.95,'48455':0.05}",FALSE,FALSE,America/Chicago
75925,31.61115,-95.06597,Alto,TX,Texas,TRUE,,4179,6.8,48073,Cherokee,{'48073':100},FALSE,FALSE,America/Chicago
75926,31.25151,-94.96273,Apple Springs,TX,Texas,TRUE,,1070,3.5,48455,Trinity,{'48455':100},FALSE,FALSE,America/Chicago
75928,30.67149,-93.71174,Bon Wier,TX,Texas,TRUE,,1411,6,48351,Newton,{'48351':100},FALSE,FALSE,America/Chicago
75929,31.2455,-94.19467,Broaddus,TX,Texas,TRUE,,1599,4.7,48405,San Augustine,{'48405':100},FALSE,FALSE,America/Chicago
75930,31.322,-94.03264,Bronson,TX,Texas,TRUE,,2023,5.8,48403,Sabine,"{'48403':60.41,'48405':39.59}",FALSE,FALSE,America/Chicago
75931,31.1108,-94.00384,Brookeland,TX,Texas,TRUE,,2631,18.1,48241,Jasper,"{'48241':84.87,'48403':15.13}",FALSE,FALSE,America/Chicago
75932,31.05408,-93.60987,Burkeville,TX,Texas,TRUE,,1437,4.4,48351,Newton,{'48351':100},FALSE,FALSE,America/Chicago
75933,30.5581,-93.81161,Call,TX,Texas,TRUE,,1599,8.3,48351,Newton,"{'48241':29.21,'48351':70.79}",FALSE,FALSE,America/Chicago
75934,30.8959,-94.75068,Camden,TX,Texas,TRUE,,99,5.2,48373,Polk,{'48373':100},FALSE,FALSE,America/Chicago
75935,31.73268,-94.20157,Center,TX,Texas,TRUE,,13685,14.9,48419,Shelby,"{'48405':1.22,'48419':98.78}",FALSE,FALSE,America/Chicago
75936,30.95212,-94.57962,Chester,TX,Texas,TRUE,,889,2.7,48457,Tyler,"{'48373':14.29,'48457':85.71}",FALSE,FALSE,America/Chicago
75937,31.45872,-94.3765,Chireno,TX,Texas,TRUE,,994,5.7,48347,Nacogdoches,{'48347':100},FALSE,FALSE,America/Chicago
75938,30.93261,-94.35343,Colmesneil,TX,Texas,TRUE,,2608,5.4,48457,Tyler,{'48457':100},FALSE,FALSE,America/Chicago
75939,31.01825,-94.79404,Corrigan,TX,Texas,TRUE,,3992,6.4,48373,Polk,{'48373':100},FALSE,FALSE,America/Chicago
75941,31.17991,-94.76368,Diboll,TX,Texas,TRUE,,9105,41.4,48005,Angelina,{'48005':100},FALSE,FALSE,America/Chicago
75942,30.8163,-94.43156,Doucette,TX,Texas,TRUE,,115,107.6,48457,Tyler,{'48457':100},FALSE,FALSE,America/Chicago
75943,31.65356,-94.88784,Douglass,TX,Texas,TRUE,,1262,7.6,48347,Nacogdoches,{'48347':100},FALSE,FALSE,America/Chicago
75944,31.33734,-94.38859,Etoile,TX,Texas,TRUE,,1301,12.7,48347,Nacogdoches,{'48347':100},FALSE,FALSE,America/Chicago
75946,31.8136,-94.5254,Garrison,TX,Texas,TRUE,,3578,9.9,48347,Nacogdoches,"{'48347':78.76,'48401':21.24}",FALSE,FALSE,America/Chicago
75948,31.30812,-93.77894,Hemphill,TX,Texas,TRUE,,6281,9.9,48403,Sabine,"{'48351':0.35,'48403':99.65}",FALSE,FALSE,America/Chicago
75949,31.23143,-94.51943,Huntington,TX,Texas,TRUE,,7976,15.6,48005,Angelina,{'48005':100},FALSE,FALSE,America/Chicago
75951,30.94151,-94.05383,Jasper,TX,Texas,TRUE,,16134,15.8,48241,Jasper,"{'48241':99.98,'48351':0.02}",FALSE,FALSE,America/Chicago
75954,31.92347,-94.05437,Joaquin,TX,Texas,TRUE,,3280,11.8,48419,Shelby,"{'48365':5.91,'48419':94.09}",FALSE,FALSE,America/Chicago
75956,30.67771,-93.97824,Kirbyville,TX,Texas,TRUE,,7623,12.1,48241,Jasper,"{'48241':91.89,'48351':8.11}",FALSE,FALSE,America/Chicago
75959,31.51451,-93.84929,Milam,TX,Texas,TRUE,,923,7.7,48403,Sabine,{'48403':100},FALSE,FALSE,America/Chicago
75960,30.91444,-94.86708,Moscow,TX,Texas,TRUE,,913,8.2,48373,Polk,{'48373':100},FALSE,FALSE,America/Chicago
75961,31.56112,-94.50001,Nacogdoches,TX,Texas,TRUE,,14910,20.8,48347,Nacogdoches,{'48347':100},FALSE,FALSE,America/Chicago
75962,31.61986,-94.64708,Nacogdoches,TX,Texas,TRUE,,3029,4402.8,48347,Nacogdoches,{'48347':100},FALSE,FALSE,America/Chicago
75964,31.62169,-94.74495,Nacogdoches,TX,Texas,TRUE,,20097,33.5,48347,Nacogdoches,{'48347':100},FALSE,FALSE,America/Chicago
75965,31.72385,-94.62609,Nacogdoches,TX,Texas,TRUE,,17591,92,48347,Nacogdoches,{'48347':100},FALSE,FALSE,America/Chicago
75966,30.8352,-93.72844,Newton,TX,Texas,TRUE,,5371,7.7,48351,Newton,{'48351':100},FALSE,FALSE,America/Chicago
75968,31.25262,-93.95041,Pineland,TX,Texas,TRUE,,1766,9.3,48403,Sabine,"{'48403':99.94,'48405':0.06}",FALSE,FALSE,America/Chicago
75969,31.44688,-94.89891,Pollok,TX,Texas,TRUE,,4116,18.5,48005,Angelina,"{'48005':94.75,'48073':5.25}",FALSE,FALSE,America/Chicago
75972,31.49499,-94.12708,San Augustine,TX,Texas,TRUE,,6620,7.1,48405,San Augustine,"{'48403':4.03,'48405':95.12,'48419':0.85}",FALSE,FALSE,America/Chicago
75973,31.71653,-93.93295,Shelbyville,TX,Texas,TRUE,,2599,5.6,48419,Shelby,{'48419':100},FALSE,FALSE,America/Chicago
75974,31.95671,-94.23869,Tenaha,TX,Texas,TRUE,,3126,11.5,48419,Shelby,"{'48365':17.31,'48419':82.69}",FALSE,FALSE,America/Chicago
75975,31.89738,-94.41302,Timpson,TX,Texas,TRUE,,3699,10,48419,Shelby,"{'48365':1.62,'48401':2.6,'48419':95.78}",FALSE,FALSE,America/Chicago
75976,31.52059,-94.92748,Wells,TX,Texas,TRUE,,827,14.1,48073,Cherokee,{'48073':100},FALSE,FALSE,America/Chicago
75977,31.06121,-93.78207,Wiergate,TX,Texas,TRUE,,750,1.6,48351,Newton,{'48351':100},FALSE,FALSE,America/Chicago
75978,31.50912,-94.52722,Woden,TX,Texas,TRUE,,144,100.6,48347,Nacogdoches,{'48347':100},FALSE,FALSE,America/Chicago
75979,30.7763,-94.4015,Woodville,TX,Texas,TRUE,,11423,15.2,48457,Tyler,{'48457':100},FALSE,FALSE,America/Chicago
75980,31.12666,-94.35255,Zavalla,TX,Texas,TRUE,,2836,6.8,48005,Angelina,"{'48005':97.53,'48241':2.47}",FALSE,FALSE,America/Chicago
76001,32.63041,-97.15278,Arlington,TX,Texas,TRUE,,30460,1139.9,48439,Tarrant,{'48439':100},FALSE,FALSE,America/Chicago
76002,32.62262,-97.09226,Arlington,TX,Texas,TRUE,,30269,1618.7,48439,Tarrant,{'48439':100},FALSE,FALSE,America/Chicago
76006,32.78493,-97.10019,Arlington,TX,Texas,TRUE,,22639,1157.5,48439,Tarrant,{'48439':100},FALSE,FALSE,America/Chicago
76008,32.69283,-97.6237,Aledo,TX,Texas,TRUE,,13602,70.8,48367,Parker,"{'48367':86.15,'48439':13.85}",FALSE,FALSE,America/Chicago
76009,32.41579,-97.20169,Alvarado,TX,Texas,TRUE,,19759,77.6,48251,Johnson,{'48251':100},FALSE,FALSE,America/Chicago
76010,32.72283,-97.08035,Arlington,TX,Texas,TRUE,,55706,2413.8,48439,Tarrant,{'48439':100},FALSE,FALSE,America/Chicago
76011,32.75425,-97.08254,Arlington,TX,Texas,TRUE,,21594,1038.9,48439,Tarrant,{'48439':100},FALSE,FALSE,America/Chicago
76012,32.75461,-97.13902,Arlington,TX,Texas,TRUE,,25689,1214.1,48439,Tarrant,{'48439':100},FALSE,FALSE,America/Chicago
76013,32.72033,-97.15646,Arlington,TX,Texas,TRUE,,30680,1321.5,48439,Tarrant,{'48439':100},FALSE,FALSE,America/Chicago
76014,32.69202,-97.08794,Arlington,TX,Texas,TRUE,,34072,2284.7,48439,Tarrant,{'48439':100},FALSE,FALSE,America/Chicago
76015,32.69221,-97.13341,Arlington,TX,Texas,TRUE,,16658,1501.4,48439,Tarrant,{'48439':100},FALSE,FALSE,America/Chicago
76016,32.68906,-97.18871,Arlington,TX,Texas,TRUE,,30852,1344.1,48439,Tarrant,{'48439':100},FALSE,FALSE,America/Chicago
76017,32.66204,-97.16261,Arlington,TX,Texas,TRUE,,44724,1661.3,48439,Tarrant,{'48439':100},FALSE,FALSE,America/Chicago
76018,32.66077,-97.09,Arlington,TX,Texas,TRUE,,26938,1357.8,48439,Tarrant,{'48439':100},FALSE,FALSE,America/Chicago
76020,32.90004,-97.56544,Azle,TX,Texas,TRUE,,27270,159.5,48439,Tarrant,"{'48367':40.75,'48439':56.76,'48497':2.49}",FALSE,FALSE,America/Chicago
76021,32.85231,-97.13119,Bedford,TX,Texas,TRUE,,33673,1793.8,48439,Tarrant,{'48439':100},FALSE,FALSE,America/Chicago
76022,32.83064,-97.14522,Bedford,TX,Texas,TRUE,,13212,1910.5,48439,Tarrant,{'48439':100},FALSE,FALSE,America/Chicago
76023,33.0485,-97.60577,Boyd,TX,Texas,TRUE,,5832,40.1,48497,Wise,"{'48367':3.4,'48497':96.6}",FALSE,FALSE,America/Chicago
76028,32.52605,-97.30317,Burleson,TX,Texas,TRUE,,59744,299.1,48251,Johnson,"{'48251':70.93,'48439':29.07}",FALSE,FALSE,America/Chicago
76031,32.34848,-97.33114,Cleburne,TX,Texas,TRUE,,17759,94.6,48251,Johnson,{'48251':100},FALSE,FALSE,America/Chicago
76033,32.28511,-97.51137,Cleburne,TX,Texas,TRUE,,24819,58.4,48251,Johnson,"{'48221':0.06,'48251':99.94}",FALSE,FALSE,America/Chicago
76034,32.89119,-97.14877,Colleyville,TX,Texas,TRUE,,22748,672.6,48439,Tarrant,{'48439':100},FALSE,FALSE,America/Chicago
76035,32.56288,-97.63361,Cresson,TX,Texas,TRUE,,1622,9.3,48251,Johnson,"{'48221':24.41,'48251':8.08,'48367':67.51}",FALSE,FALSE,America/Chicago
76036,32.57702,-97.41283,Crowley,TX,Texas,TRUE,,22352,187.6,48439,Tarrant,"{'48251':11.95,'48439':88.05}",FALSE,FALSE,America/Chicago
76039,32.85936,-97.08383,Euless,TX,Texas,TRUE,,32925,1952.7,48439,Tarrant,{'48439':100},FALSE,FALSE,America/Chicago
76040,32.8147,-97.09677,Euless,TX,Texas,TRUE,,27524,934.1,48439,Tarrant,{'48439':100},FALSE,FALSE,America/Chicago
76041,32.24004,-96.84635,Forreston,TX,Texas,TRUE,,434,14.2,48139,Ellis,{'48139':100},FALSE,FALSE,America/Chicago
76043,32.20528,-97.79713,Glen Rose,TX,Texas,TRUE,,7071,19.9,48425,Somervell,"{'48035':0.13,'48425':99.87}",FALSE,FALSE,America/Chicago
76044,32.42759,-97.54354,Godley,TX,Texas,TRUE,,3866,14.8,48251,Johnson,{'48251':100},FALSE,FALSE,America/Chicago
76048,32.42318,-97.80877,Granbury,TX,Texas,TRUE,,21989,78.2,48221,Hood,"{'48221':99.7,'48425':0.3}",FALSE,FALSE,America/Chicago
76049,32.46394,-97.70805,Granbury,TX,Texas,TRUE,,25130,96.1,48221,Hood,"{'48221':97.09,'48251':0.97,'48367':1.93}",FALSE,FALSE,America/Chicago
76050,32.27536,-97.16601,Grandview,TX,Texas,TRUE,,5875,18.6,48251,Johnson,"{'48139':3.74,'48217':5.4,'48251':90.86}",FALSE,FALSE,America/Chicago
76051,32.92498,-97.07177,Grapevine,TX,Texas,TRUE,,46320,485.4,48439,Tarrant,"{'48113':0,'48439':100}",FALSE,FALSE,America/Chicago
76052,32.98625,-97.37657,Haslet,TX,Texas,TRUE,,15995,136.4,48439,Tarrant,"{'48121':3.73,'48439':92.63,'48497':3.64}",FALSE,FALSE,America/Chicago
76053,32.8171,-97.17951,Hurst,TX,Texas,TRUE,,28421,1371.3,48439,Tarrant,{'48439':100},FALSE,FALSE,America/Chicago
76054,32.85918,-97.17782,Hurst,TX,Texas,TRUE,,11764,1195.3,48439,Tarrant,{'48439':100},FALSE,FALSE,America/Chicago
76055,32.16217,-97.15511,Itasca,TX,Texas,TRUE,,3084,13.4,48217,Hill,{'48217':100},FALSE,FALSE,America/Chicago
76058,32.46692,-97.42395,Joshua,TX,Texas,TRUE,,17123,121.4,48251,Johnson,{'48251':100},FALSE,FALSE,America/Chicago
76059,32.39253,-97.32686,Keene,TX,Texas,TRUE,,4881,686.3,48251,Johnson,{'48251':100},FALSE,FALSE,America/Chicago
76060,32.64076,-97.21584,Kennedale,TX,Texas,TRUE,,6764,353,48439,Tarrant,{'48439':100},FALSE,FALSE,America/Chicago
76061,32.50396,-97.18842,Lillian,TX,Texas,TRUE,,152,38.9,48251,Johnson,{'48251':100},FALSE,FALSE,America/Chicago
76063,32.5698,-97.14273,Mansfield,TX,Texas,TRUE,,61361,457.3,48439,Tarrant,"{'48251':4.76,'48439':95.24}",FALSE,FALSE,America/Chicago
76064,32.30137,-97.03549,Maypearl,TX,Texas,TRUE,,1883,24.3,48139,Ellis,{'48139':100},FALSE,FALSE,America/Chicago
76065,32.47047,-96.98898,Midlothian,TX,Texas,TRUE,,28986,113.8,48139,Ellis,{'48139':100},FALSE,FALSE,America/Chicago
76066,32.70727,-97.99502,Millsap,TX,Texas,TRUE,,3142,14.1,48367,Parker,"{'48363':4.84,'48367':95.16}",FALSE,FALSE,America/Chicago
76067,32.80005,-98.12755,Mineral Wells,TX,Texas,TRUE,,22117,49,48363,Palo Pinto,"{'48363':89.61,'48367':10.39}",FALSE,FALSE,America/Chicago
76070,32.26241,-97.65425,Nemo,TX,Texas,TRUE,,752,8.1,48425,Somervell,"{'48251':3.19,'48425':96.81}",FALSE,FALSE,America/Chicago
76071,33.00546,-97.4794,Newark,TX,Texas,TRUE,,3320,169.9,48497,Wise,"{'48439':10.99,'48497':89.01}",FALSE,FALSE,America/Chicago
76073,33.10347,-97.72734,Paradise,TX,Texas,TRUE,,5327,24.4,48497,Wise,{'48497':100},FALSE,FALSE,America/Chicago
76077,32.28213,-97.70548,Rainbow,TX,Texas,TRUE,,590,31.2,48425,Somervell,{'48425':100},FALSE,FALSE,America/Chicago
76078,33.08916,-97.46658,Rhome,TX,Texas,TRUE,,8572,49.2,48497,Wise,"{'48121':8.67,'48497':91.33}",FALSE,FALSE,America/Chicago
76082,32.9705,-97.71843,Springtown,TX,Texas,TRUE,,17748,68.2,48367,Parker,"{'48367':87.31,'48497':12.69}",FALSE,FALSE,America/Chicago
76084,32.4322,-97.08947,Venus,TX,Texas,TRUE,,8327,63.3,48251,Johnson,"{'48139':16.87,'48251':83.13}",FALSE,FALSE,America/Chicago
76085,32.8503,-97.70076,Weatherford,TX,Texas,TRUE,,8787,53.1,48367,Parker,{'48367':100},FALSE,FALSE,America/Chicago
76086,32.75481,-97.78995,Weatherford,TX,Texas,TRUE,,20196,530.5,48367,Parker,{'48367':100},FALSE,FALSE,America/Chicago
76087,32.67075,-97.78314,Weatherford,TX,Texas,TRUE,,24746,51.2,48367,Parker,"{'48221':1.33,'48367':98.67}",FALSE,FALSE,America/Chicago
76088,32.84576,-97.90141,Weatherford,TX,Texas,TRUE,,11499,28,48367,Parker,{'48367':100},FALSE,FALSE,America/Chicago
76092,32.95998,-97.14859,Southlake,TX,Texas,TRUE,,26669,456.7,48439,Tarrant,"{'48121':2.91,'48439':97.09}",FALSE,FALSE,America/Chicago
76093,32.21723,-97.3949,Rio Vista,TX,Texas,TRUE,,2095,21.8,48251,Johnson,"{'48217':6.59,'48251':93.41}",FALSE,FALSE,America/Chicago
76102,32.75923,-97.32978,Fort Worth,TX,Texas,TRUE,,8111,725.8,48439,Tarrant,{'48439':100},FALSE,FALSE,America/Chicago
76103,32.75207,-97.26549,Fort Worth,TX,Texas,TRUE,,14572,1031.6,48439,Tarrant,{'48439':100},FALSE,FALSE,America/Chicago
76104,32.7287,-97.31777,Fort Worth,TX,Texas,TRUE,,17446,1149.3,48439,Tarrant,{'48439':100},FALSE,FALSE,America/Chicago
76105,32.72406,-97.26935,Fort Worth,TX,Texas,TRUE,,22194,1538.2,48439,Tarrant,{'48439':100},FALSE,FALSE,America/Chicago
76106,32.81451,-97.35244,Fort Worth,TX,Texas,TRUE,,35389,939.2,48439,Tarrant,{'48439':100},FALSE,FALSE,America/Chicago
76107,32.74171,-97.38196,Fort Worth,TX,Texas,TRUE,,25917,931.1,48439,Tarrant,{'48439':100},FALSE,FALSE,America/Chicago
76108,32.77595,-97.52195,Fort Worth,TX,Texas,TRUE,,38227,316.1,48439,Tarrant,"{'48367':7.44,'48439':92.56}",FALSE,FALSE,America/Chicago
76109,32.701,-97.38392,Fort Worth,TX,Texas,TRUE,,21710,1028.1,48439,Tarrant,{'48439':100},FALSE,FALSE,America/Chicago
76110,32.70696,-97.33888,Fort Worth,TX,Texas,TRUE,,30434,2048.5,48439,Tarrant,{'48439':100},FALSE,FALSE,America/Chicago
76111,32.77809,-97.29988,Fort Worth,TX,Texas,TRUE,,21685,1014.6,48439,Tarrant,{'48439':100},FALSE,FALSE,America/Chicago
76112,32.74812,-97.21845,Fort Worth,TX,Texas,TRUE,,38993,1328.5,48439,Tarrant,{'48439':100},FALSE,FALSE,America/Chicago
76114,32.77444,-97.40272,Fort Worth,TX,Texas,TRUE,,24741,1046,48439,Tarrant,{'48439':100},FALSE,FALSE,America/Chicago
76115,32.67877,-97.33078,Fort Worth,TX,Texas,TRUE,,20696,1714.9,48439,Tarrant,{'48439':100},FALSE,FALSE,America/Chicago
76116,32.72172,-97.44637,Fort Worth,TX,Texas,TRUE,,46746,1484.2,48439,Tarrant,{'48439':100},FALSE,FALSE,America/Chicago
76117,32.80369,-97.26755,Haltom City,TX,Texas,TRUE,,30645,1096.7,48439,Tarrant,{'48439':100},FALSE,FALSE,America/Chicago
76118,32.79966,-97.20767,Fort Worth,TX,Texas,TRUE,,13866,705.9,48439,Tarrant,{'48439':100},FALSE,FALSE,America/Chicago
76119,32.69064,-97.26215,Fort Worth,TX,Texas,TRUE,,42761,1017.5,48439,Tarrant,{'48439':100},FALSE,FALSE,America/Chicago
76120,32.77221,-97.17821,Fort Worth,TX,Texas,TRUE,,15283,603.9,48439,Tarrant,{'48439':100},FALSE,FALSE,America/Chicago
76123,32.61898,-97.39318,Fort Worth,TX,Texas,TRUE,,29722,1416.6,48439,Tarrant,{'48439':100},FALSE,FALSE,America/Chicago
76126,32.63383,-97.51234,Fort Worth,TX,Texas,TRUE,,19395,117.8,48439,Tarrant,"{'48367':3.92,'48439':96.08}",FALSE,FALSE,America/Chicago
76127,32.77701,-97.43019,Naval Air Station Jrb,TX,Texas,TRUE,,2003,355.4,48439,Tarrant,{'48439':100},FALSE,FALSE,America/Chicago
76129,32.7087,-97.36342,Fort Worth,TX,Texas,TRUE,,2833,9943,48439,Tarrant,{'48439':100},FALSE,FALSE,America/Chicago
76131,32.88334,-97.34692,Fort Worth,TX,Texas,TRUE,,28374,725.7,48439,Tarrant,{'48439':100},FALSE,FALSE,America/Chicago
76132,32.66759,-97.41797,Fort Worth,TX,Texas,TRUE,,24709,1302,48439,Tarrant,{'48439':100},FALSE,FALSE,America/Chicago
76133,32.65393,-97.37723,Fort Worth,TX,Texas,TRUE,,48394,2022.8,48439,Tarrant,{'48439':100},FALSE,FALSE,America/Chicago
76134,32.64274,-97.33353,Fort Worth,TX,Texas,TRUE,,23704,1147.8,48439,Tarrant,{'48439':100},FALSE,FALSE,America/Chicago
76135,32.83435,-97.46485,Fort Worth,TX,Texas,TRUE,,20684,307.4,48439,Tarrant,{'48439':100},FALSE,FALSE,America/Chicago
76137,32.8588,-97.29129,Fort Worth,TX,Texas,TRUE,,54911,1566.5,48439,Tarrant,{'48439':100},FALSE,FALSE,America/Chicago
76140,32.6206,-97.2701,Fort Worth,TX,Texas,TRUE,,26340,365,48439,Tarrant,{'48439':100},FALSE,FALSE,America/Chicago
76148,32.86811,-97.25197,Fort Worth,TX,Texas,TRUE,,23331,1931.9,48439,Tarrant,{'48439':100},FALSE,FALSE,America/Chicago
76155,32.82398,-97.04866,Fort Worth,TX,Texas,TRUE,,3115,347.1,48439,Tarrant,{'48439':100},FALSE,FALSE,America/Chicago
76164,32.78114,-97.35461,Fort Worth,TX,Texas,TRUE,,16748,1642.7,48439,Tarrant,{'48439':100},FALSE,FALSE,America/Chicago
76177,32.97521,-97.3112,Fort Worth,TX,Texas,TRUE,,4891,130.6,48439,Tarrant,"{'48121':15.15,'48439':84.85}",FALSE,FALSE,America/Chicago
76179,32.9144,-97.43777,Fort Worth,TX,Texas,TRUE,,48058,343.9,48439,Tarrant,{'48439':100},FALSE,FALSE,America/Chicago
76180,32.83996,-97.22499,North Richland Hills,TX,Texas,TRUE,,33444,1370.3,48439,Tarrant,{'48439':100},FALSE,FALSE,America/Chicago
76182,32.88278,-97.20984,North Richland Hills,TX,Texas,TRUE,,28209,1239.9,48439,Tarrant,{'48439':100},FALSE,FALSE,America/Chicago
76201,33.22113,-97.14723,Denton,TX,Texas,TRUE,,27107,1876.1,48121,Denton,{'48121':100},FALSE,FALSE,America/Chicago
76205,33.19028,-97.12812,Denton,TX,Texas,TRUE,,18510,843.8,48121,Denton,{'48121':100},FALSE,FALSE,America/Chicago
76207,33.22856,-97.18131,Denton,TX,Texas,TRUE,,10579,111,48121,Denton,{'48121':100},FALSE,FALSE,America/Chicago
76208,33.20883,-97.05736,Denton,TX,Texas,TRUE,,19782,282,48121,Denton,{'48121':100},FALSE,FALSE,America/Chicago
76209,33.23157,-97.10988,Denton,TX,Texas,TRUE,,24018,1415.3,48121,Denton,{'48121':100},FALSE,FALSE,America/Chicago
76210,33.15036,-97.096,Denton,TX,Texas,TRUE,,39556,951.1,48121,Denton,{'48121':100},FALSE,FALSE,America/Chicago
76225,33.36444,-97.67311,Alvord,TX,Texas,TRUE,,3156,12.2,48497,Wise,{'48497':100},FALSE,FALSE,America/Chicago
76226,33.11035,-97.16947,Argyle,TX,Texas,TRUE,,18419,149.1,48121,Denton,{'48121':100},FALSE,FALSE,America/Chicago
76227,33.27392,-96.99052,Aubrey,TX,Texas,TRUE,,22141,107.7,48121,Denton,{'48121':100},FALSE,FALSE,America/Chicago
76228,33.62099,-98.06028,Bellevue,TX,Texas,TRUE,,1119,2.3,48077,Clay,"{'48077':87.04,'48337':12.96}",FALSE,FALSE,America/Chicago
76230,33.51993,-97.95469,Bowie,TX,Texas,TRUE,,9711,9.9,48337,Montague,"{'48077':1.46,'48237':2.62,'48337':95.92}",FALSE,FALSE,America/Chicago
76233,33.53626,-96.90828,Collinsville,TX,Texas,TRUE,,3235,19.8,48181,Grayson,"{'48097':15.86,'48181':84.14}",FALSE,FALSE,America/Chicago
76234,33.272,-97.51417,Decatur,TX,Texas,TRUE,,15587,19.4,48497,Wise,"{'48097':0.26,'48121':1.95,'48497':97.79}",FALSE,FALSE,America/Chicago
76238,33.48819,-97.35067,Era,TX,Texas,TRUE,,431,6.3,48097,Cooke,{'48097':100},FALSE,FALSE,America/Chicago
76239,33.51986,-97.54515,Forestburg,TX,Texas,TRUE,,1087,3.7,48337,Montague,"{'48097':19.14,'48337':80.86}",FALSE,FALSE,America/Chicago
76240,33.65629,-97.17453,Gainesville,TX,Texas,TRUE,,26120,27.3,48097,Cooke,{'48097':100},FALSE,FALSE,America/Chicago
76244,32.93098,-97.28435,Keller,TX,Texas,TRUE,,60388,1353.9,48439,Tarrant,{'48439':100},FALSE,FALSE,America/Chicago
76245,33.82798,-96.84912,Gordonville,TX,Texas,TRUE,,1780,30.4,48181,Grayson,{'48181':100},FALSE,FALSE,America/Chicago
76247,33.09842,-97.32495,Justin,TX,Texas,TRUE,,13098,70.4,48121,Denton,{'48121':100},FALSE,FALSE,America/Chicago
76248,32.92574,-97.22899,Keller,TX,Texas,TRUE,,34647,926.6,48439,Tarrant,{'48439':100},FALSE,FALSE,America/Chicago
76249,33.2828,-97.3041,Krum,TX,Texas,TRUE,,7194,41.4,48121,Denton,"{'48121':99.53,'48497':0.47}",FALSE,FALSE,America/Chicago
76250,33.63013,-97.23578,Lindsay,TX,Texas,TRUE,,937,41,48097,Cooke,{'48097':100},FALSE,FALSE,America/Chicago
76251,33.62076,-97.68976,Montague,TX,Texas,TRUE,,731,5.3,48337,Montague,{'48337':100},FALSE,FALSE,America/Chicago
76252,33.68568,-97.38545,Muenster,TX,Texas,TRUE,,2863,6,48097,Cooke,{'48097':100},FALSE,FALSE,America/Chicago
76253,33.61587,-97.31078,Myra,TX,Texas,TRUE,,230,57.4,48097,Cooke,{'48097':100},FALSE,FALSE,America/Chicago
76255,33.82,-97.72916,Nocona,TX,Texas,TRUE,,5411,8,48337,Montague,{'48337':100},FALSE,FALSE,America/Chicago
76258,33.3719,-96.91965,Pilot Point,TX,Texas,TRUE,,6659,28.8,48121,Denton,"{'48121':95.03,'48181':4.97}",FALSE,FALSE,America/Chicago
76259,33.20016,-97.30705,Ponder,TX,Texas,TRUE,,4618,31.5,48121,Denton,"{'48121':99.24,'48497':0.76}",FALSE,FALSE,America/Chicago
76261,33.80065,-97.96329,Ringgold,TX,Texas,TRUE,,233,1.3,48337,Montague,"{'48077':9.44,'48337':90.56}",FALSE,FALSE,America/Chicago
76262,33.00948,-97.22581,Roanoke,TX,Texas,TRUE,,27648,235.6,48121,Denton,"{'48121':60.77,'48439':39.23}",FALSE,FALSE,America/Chicago
76263,33.46746,-97.45338,Rosston,TX,Texas,TRUE,,44,2,48097,Cooke,{'48097':100},FALSE,FALSE,America/Chicago
76264,33.73974,-96.83528,Sadler,TX,Texas,TRUE,,1412,15.3,48181,Grayson,{'48181':100},FALSE,FALSE,America/Chicago
76265,33.74828,-97.54502,Saint Jo,TX,Texas,TRUE,,1893,3.7,48337,Montague,"{'48097':5.76,'48337':94.24}",FALSE,FALSE,America/Chicago
76266,33.36725,-97.21416,Sanger,TX,Texas,TRUE,,13495,43.3,48121,Denton,"{'48097':0.07,'48121':99.93}",FALSE,FALSE,America/Chicago
76268,33.62759,-96.76741,Southmayd,TX,Texas,TRUE,,250,167.2,48181,Grayson,{'48181':100},FALSE,FALSE,America/Chicago
76270,33.45613,-97.75203,Sunset,TX,Texas,TRUE,,1853,7.1,48337,Montague,"{'48337':67.08,'48497':32.92}",FALSE,FALSE,America/Chicago
76271,33.46699,-96.90778,Tioga,TX,Texas,TRUE,,1352,13.2,48181,Grayson,"{'48097':8.88,'48181':91.12}",FALSE,FALSE,America/Chicago
76272,33.46625,-97.1289,Valley View,TX,Texas,TRUE,,4745,18.5,48097,Cooke,"{'48097':98.88,'48121':1.12}",FALSE,FALSE,America/Chicago
76273,33.74558,-96.93354,Whitesboro,TX,Texas,TRUE,,9135,17.3,48181,Grayson,"{'48097':23.21,'48181':76.79}",FALSE,FALSE,America/Chicago
76301,33.90561,-98.48,Wichita Falls,TX,Texas,TRUE,,16540,548.6,48485,Wichita,{'48485':100},FALSE,FALSE,America/Chicago
76302,33.86456,-98.49109,Wichita Falls,TX,Texas,TRUE,,13206,611,48485,Wichita,{'48485':100},FALSE,FALSE,America/Chicago
76305,33.99939,-98.39395,Wichita Falls,TX,Texas,TRUE,,4746,8.4,48485,Wichita,"{'48077':41.55,'48485':58.45}",FALSE,FALSE,America/Chicago
76306,33.9451,-98.52395,Wichita Falls,TX,Texas,TRUE,,15991,470.7,48485,Wichita,{'48485':100},FALSE,FALSE,America/Chicago
76308,33.85238,-98.54057,Wichita Falls,TX,Texas,TRUE,,19677,850.8,48485,Wichita,"{'48009':5.69,'48485':94.31}",FALSE,FALSE,America/Chicago
76309,33.89493,-98.54383,Wichita Falls,TX,Texas,TRUE,,13862,960.3,48485,Wichita,{'48485':100},FALSE,FALSE,America/Chicago
76310,33.7986,-98.51092,Wichita Falls,TX,Texas,TRUE,,17989,38.7,48485,Wichita,"{'48009':8.55,'48077':5.89,'48485':85.56}",FALSE,FALSE,America/Chicago
76311,33.96947,-98.50898,Sheppard Afb,TX,Texas,TRUE,,7535,1757.8,48485,Wichita,{'48485':100},FALSE,FALSE,America/Chicago
76351,33.56891,-98.67458,Archer City,TX,Texas,TRUE,,2035,4.1,48009,Archer,{'48009':100},FALSE,FALSE,America/Chicago
76354,34.09738,-98.62144,Burkburnett,TX,Texas,TRUE,,11270,55.4,48485,Wichita,{'48485':100},FALSE,FALSE,America/Chicago
76357,34.08174,-98.18468,Byers,TX,Texas,TRUE,,712,4.2,48077,Clay,{'48077':100},FALSE,FALSE,America/Chicago
76360,33.96894,-98.96631,Electra,TX,Texas,TRUE,,3502,4.8,48485,Wichita,"{'48009':1.63,'48485':95.06,'48487':3.31}",FALSE,FALSE,America/Chicago
76363,33.48303,-99.542,Goree,TX,Texas,TRUE,,256,1.6,48275,Knox,{'48275':100},FALSE,FALSE,America/Chicago
76364,34.11368,-99.01676,Harrold,TX,Texas,TRUE,,193,1.1,48487,Wilbarger,{'48487':100},FALSE,FALSE,America/Chicago
76365,33.75812,-98.20162,Henrietta,TX,Texas,TRUE,,4831,3.5,48077,Clay,"{'48077':99.42,'48237':0.58}",FALSE,FALSE,America/Chicago
76366,33.727,-98.78208,Holliday,TX,Texas,TRUE,,2317,3.8,48009,Archer,{'48009':100},FALSE,FALSE,America/Chicago
76367,33.97433,-98.72274,Iowa Park,TX,Texas,TRUE,,13045,25.4,48485,Wichita,{'48485':100},FALSE,FALSE,America/Chicago
76370,33.53169,-98.88815,Megargel,TX,Texas,TRUE,,299,1.1,48009,Archer,{'48009':100},FALSE,FALSE,America/Chicago
76371,33.48662,-99.64033,Munday,TX,Texas,TRUE,,1606,5.9,48275,Knox,{'48275':100},FALSE,FALSE,America/Chicago
76372,33.25294,-98.919,Newcastle,TX,Texas,TRUE,,974,1.4,48503,Young,"{'48447':11.5,'48503':88.5}",FALSE,FALSE,America/Chicago
76373,34.13069,-99.11397,Oklaunion,TX,Texas,TRUE,,162,2.2,48487,Wilbarger,{'48487':100},FALSE,FALSE,America/Chicago
76374,33.35974,-98.73818,Olney,TX,Texas,TRUE,,4162,5.7,48503,Young,"{'48009':2.31,'48503':97.69}",FALSE,FALSE,America/Chicago
76377,34.01483,-98.23963,Petrolia,TX,Texas,TRUE,,802,10.2,48077,Clay,{'48077':100},FALSE,FALSE,America/Chicago
76379,33.67016,-98.47541,Scotland,TX,Texas,TRUE,,591,5.3,48009,Archer,{'48009':100},FALSE,FALSE,America/Chicago
76380,33.61862,-99.2424,Seymour,TX,Texas,TRUE,,3820,1.6,48023,Baylor,"{'48023':97.54,'48275':2.46}",FALSE,FALSE,America/Chicago
76384,34.16774,-99.32555,Vernon,TX,Texas,TRUE,,12991,10.5,48487,Wilbarger,"{'48155':0.15,'48487':99.85}",FALSE,FALSE,America/Chicago
76388,33.32169,-99.63092,Weinert,TX,Texas,TRUE,,203,0.8,48207,Haskell,{'48207':100},FALSE,FALSE,America/Chicago
76389,33.51579,-98.45822,Windthorst,TX,Texas,TRUE,,1329,2.6,48009,Archer,"{'48009':75.32,'48077':19.94,'48237':4.74}",FALSE,FALSE,America/Chicago
76401,32.28259,-98.19882,Stephenville,TX,Texas,TRUE,,25702,24.1,48143,Erath,{'48143':100},FALSE,FALSE,America/Chicago
76402,32.2164,-98.21729,Stephenville,TX,Texas,TRUE,,847,3672.5,48143,Erath,{'48143':100},FALSE,FALSE,America/Chicago
76424,32.80509,-98.89861,Breckenridge,TX,Texas,TRUE,,8992,6.7,48429,Stephens,"{'48429':99.86,'48503':0.14}",FALSE,FALSE,America/Chicago
76426,33.16683,-97.84266,Bridgeport,TX,Texas,TRUE,,11302,33.2,48497,Wise,"{'48237':3.06,'48497':96.94}",FALSE,FALSE,America/Chicago
76427,33.15546,-98.37755,Bryson,TX,Texas,TRUE,,804,5.5,48237,Jack,{'48237':100},FALSE,FALSE,America/Chicago
76429,32.74099,-98.67419,Caddo,TX,Texas,TRUE,,258,0.9,48429,Stephens,"{'48363':18.22,'48429':81.78}",FALSE,FALSE,America/Chicago
76430,32.785,-99.2474,Albany,TX,Texas,TRUE,,2532,2.7,48417,Shackelford,"{'48417':99.84,'48447':0.16}",FALSE,FALSE,America/Chicago
76431,33.31748,-97.85664,Chico,TX,Texas,TRUE,,3384,11,48497,Wise,"{'48237':1.65,'48497':98.35}",FALSE,FALSE,America/Chicago
76432,31.84218,-98.79696,Blanket,TX,Texas,TRUE,,1370,5.5,48049,Brown,"{'48049':91.9,'48093':8.1}",FALSE,FALSE,America/Chicago
76433,32.3152,-98.01972,Bluff Dale,TX,Texas,TRUE,,1416,4.5,48143,Erath,"{'48143':87.92,'48221':8.97,'48425':3.11}",FALSE,FALSE,America/Chicago
76435,32.25176,-98.85668,Carbon,TX,Texas,TRUE,,612,3.3,48133,Eastland,{'48133':100},FALSE,FALSE,America/Chicago
76436,31.86715,-98.22143,Carlton,TX,Texas,TRUE,,212,1.8,48193,Hamilton,"{'48093':34.43,'48193':65.57}",FALSE,FALSE,America/Chicago
76437,32.39591,-99.02367,Cisco,TX,Texas,TRUE,,5721,5.5,48133,Eastland,"{'48059':2.27,'48133':95.33,'48429':2.39}",FALSE,FALSE,America/Chicago
76442,31.89183,-98.61491,Comanche,TX,Texas,TRUE,,7545,6.5,48093,Comanche,"{'48093':98.73,'48333':1.27}",FALSE,FALSE,America/Chicago
76443,32.13333,-99.21055,Cross Plains,TX,Texas,TRUE,,1897,5.2,48059,Callahan,"{'48049':4.9,'48059':93.04,'48083':2.06}",FALSE,FALSE,America/Chicago
76444,32.11471,-98.56571,De Leon,TX,Texas,TRUE,,3635,9.7,48093,Comanche,{'48093':100},FALSE,FALSE,America/Chicago
76445,32.2995,-98.55077,Desdemona,TX,Texas,TRUE,,407,2.3,48133,Eastland,"{'48093':20.64,'48133':77.4,'48143':1.97}",FALSE,FALSE,America/Chicago
76446,32.07521,-98.34946,Dublin,TX,Texas,TRUE,,9000,8.3,48143,Erath,"{'48093':11.63,'48143':88.37}",FALSE,FALSE,America/Chicago
76448,32.40016,-98.80082,Eastland,TX,Texas,TRUE,,5628,17.2,48133,Eastland,{'48133':100},FALSE,FALSE,America/Chicago
76449,32.91566,-98.32279,Graford,TX,Texas,TRUE,,2434,4.5,48363,Palo Pinto,{'48363':100},FALSE,FALSE,America/Chicago
76450,33.0626,-98.62573,Graham,TX,Texas,TRUE,,13258,11.1,48503,Young,"{'48363':1.53,'48429':0.57,'48503':97.9}",FALSE,FALSE,America/Chicago
76452,31.75506,-98.3541,Energy,TX,Texas,TRUE,,75,3.2,48093,Comanche,{'48093':100},FALSE,FALSE,America/Chicago
76453,32.5856,-98.34162,Gordon,TX,Texas,TRUE,,1125,3.3,48363,Palo Pinto,"{'48143':9.69,'48363':90.31}",FALSE,FALSE,America/Chicago
76454,32.20812,-98.729,Gorman,TX,Texas,TRUE,,1688,4.8,48133,Eastland,"{'48093':8.59,'48133':91.41}",FALSE,FALSE,America/Chicago
76455,31.80575,-98.38355,Gustine,TX,Texas,TRUE,,1014,4.3,48093,Comanche,{'48093':100},FALSE,FALSE,America/Chicago
76457,31.952,-98.02941,Hico,TX,Texas,TRUE,,3960,4.8,48193,Hamilton,"{'48035':5,'48143':33.96,'48193':61.04}",FALSE,FALSE,America/Chicago
76458,33.21795,-98.1877,Jacksboro,TX,Texas,TRUE,,6261,4.3,48237,Jack,{'48237':100},FALSE,FALSE,America/Chicago
76459,33.27406,-98.38756,Jermyn,TX,Texas,TRUE,,146,2.5,48237,Jack,{'48237':100},FALSE,FALSE,America/Chicago
76460,33.30966,-98.49838,Loving,TX,Texas,TRUE,,421,1.7,48503,Young,{'48503':100},FALSE,FALSE,America/Chicago
76462,32.52348,-98.02749,Lipan,TX,Texas,TRUE,,2982,6.9,48221,Hood,"{'48143':13.55,'48221':45.47,'48363':14.65,'48367':26.32}",FALSE,FALSE,America/Chicago
76463,32.45666,-98.41488,Mingus,TX,Texas,TRUE,,481,2.4,48363,Palo Pinto,"{'48143':43.66,'48363':56.34}",FALSE,FALSE,America/Chicago
76464,32.5559,-99.16497,Moran,TX,Texas,TRUE,,506,1.1,48417,Shackelford,"{'48059':6.32,'48417':87.35,'48429':6.32}",FALSE,FALSE,America/Chicago
76466,32.43333,-98.73745,Olden,TX,Texas,TRUE,,332,21.2,48133,Eastland,{'48133':100},FALSE,FALSE,America/Chicago
76469,32.34527,-99.19388,Putnam,TX,Texas,TRUE,,96,2.6,48059,Callahan,{'48059':100},FALSE,FALSE,America/Chicago
76470,32.50228,-98.66151,Ranger,TX,Texas,TRUE,,3238,4.4,48133,Eastland,"{'48133':94.07,'48429':5.93}",FALSE,FALSE,America/Chicago
76471,32.11606,-98.98478,Rising Star,TX,Texas,TRUE,,1906,4.2,48133,Eastland,"{'48049':11.86,'48093':2.57,'48133':85.57}",FALSE,FALSE,America/Chicago
76472,32.60118,-98.17055,Santo,TX,Texas,TRUE,,1499,5.7,48363,Palo Pinto,{'48363':100},FALSE,FALSE,America/Chicago
76474,31.97297,-98.79289,Sidney,TX,Texas,TRUE,,281,3,48093,Comanche,"{'48049':1.78,'48093':98.22}",FALSE,FALSE,America/Chicago
76475,32.65904,-98.49888,Strawn,TX,Texas,TRUE,,977,1.6,48363,Palo Pinto,"{'48133':2.25,'48363':97.34,'48429':0.41}",FALSE,FALSE,America/Chicago
76476,32.36651,-97.91946,Tolar,TX,Texas,TRUE,,2637,9.9,48221,Hood,{'48221':100},FALSE,FALSE,America/Chicago
76481,32.9956,-98.74309,South Bend,TX,Texas,TRUE,,208,1.3,48503,Young,"{'48429':0,'48503':100}",FALSE,FALSE,America/Chicago
76483,33.18879,-99.27221,Throckmorton,TX,Texas,TRUE,,1063,0.6,48447,Throckmorton,{'48447':100},FALSE,FALSE,America/Chicago
76484,32.75833,-98.28241,Palo Pinto,TX,Texas,TRUE,,1147,4.2,48363,Palo Pinto,{'48363':100},FALSE,FALSE,America/Chicago
76486,33.02291,-98.0622,Perrin,TX,Texas,TRUE,,1375,5.1,48363,Palo Pinto,"{'48237':69.09,'48363':9.82,'48367':21.09}",FALSE,FALSE,America/Chicago
76487,32.97949,-97.88221,Poolville,TX,Texas,TRUE,,2507,10.8,48367,Parker,"{'48237':5.42,'48367':74.31,'48497':20.26}",FALSE,FALSE,America/Chicago
76490,32.94544,-98.01889,Whitt,TX,Texas,TRUE,,91,47.3,48367,Parker,{'48367':100},FALSE,FALSE,America/Chicago
76491,33.03487,-99.05052,Woodson,TX,Texas,TRUE,,459,1.4,48447,Throckmorton,{'48447':100},FALSE,FALSE,America/Chicago
76501,31.07505,-97.25433,Temple,TX,Texas,TRUE,,16897,55.8,48027,Bell,{'48027':100},FALSE,FALSE,America/Chicago
76502,31.09622,-97.41034,Temple,TX,Texas,TRUE,,31545,193.5,48027,Bell,{'48027':100},FALSE,FALSE,America/Chicago
76504,31.13807,-97.37258,Temple,TX,Texas,TRUE,,24268,346.5,48027,Bell,{'48027':100},FALSE,FALSE,America/Chicago
76508,31.07746,-97.36411,Temple,TX,Texas,TRUE,,0,0,48027,Bell,{'48027':0},FALSE,FALSE,America/Chicago
76511,30.80164,-97.42497,Bartlett,TX,Texas,TRUE,,3317,16.3,48491,Williamson,"{'48027':30.03,'48331':4.85,'48491':65.12}",FALSE,FALSE,America/Chicago
76513,31.05136,-97.49967,Belton,TX,Texas,TRUE,,34172,125.2,48027,Bell,{'48027':100},FALSE,FALSE,America/Chicago
76518,30.84974,-97.15418,Buckholts,TX,Texas,TRUE,,1581,5.2,48331,Milam,{'48331':100},FALSE,FALSE,America/Chicago
76519,30.99426,-97.04726,Burlington,TX,Texas,TRUE,,626,4.7,48145,Falls,"{'48027':50.48,'48145':8.79,'48331':40.73}",FALSE,FALSE,America/Chicago
76520,30.87611,-96.90748,Cameron,TX,Texas,TRUE,,8413,10.8,48331,Milam,{'48331':100},FALSE,FALSE,America/Chicago
76522,31.21606,-97.97338,Copperas Cove,TX,Texas,TRUE,,35534,119.4,48099,Coryell,"{'48099':94.69,'48281':5.31}",FALSE,FALSE,America/Chicago
76523,30.78956,-97.29127,Davilla,TX,Texas,TRUE,,18,11.5,48331,Milam,{'48331':100},FALSE,FALSE,America/Chicago
76524,31.26693,-97.20313,Eddy,TX,Texas,TRUE,,2867,16.5,48309,McLennan,"{'48145':18.97,'48309':81.03}",FALSE,FALSE,America/Chicago
76525,31.48559,-98.14598,Evant,TX,Texas,TRUE,,1062,2.1,48281,Lampasas,"{'48099':51.13,'48193':42.47,'48281':6.4}",FALSE,FALSE,America/Chicago
76527,30.84419,-97.80605,Florence,TX,Texas,TRUE,,4058,12.2,48491,Williamson,"{'48027':4.93,'48053':6.75,'48491':88.32}",FALSE,FALSE,America/Chicago
76528,31.42046,-97.76154,Gatesville,TX,Texas,TRUE,,16974,13,48099,Coryell,"{'48027':1.66,'48099':98.34}",FALSE,FALSE,America/Chicago
76530,30.71583,-97.42174,Granger,TX,Texas,TRUE,,2540,10.5,48491,Williamson,{'48491':100},FALSE,FALSE,America/Chicago
76531,31.6858,-98.18813,Hamilton,TX,Texas,TRUE,,4978,5,48193,Hamilton,"{'48193':99.94,'48333':0.06}",FALSE,FALSE,America/Chicago
76534,30.88262,-97.37359,Holland,TX,Texas,TRUE,,2615,11.4,48027,Bell,"{'48027':96.6,'48331':3.4}",FALSE,FALSE,America/Chicago
76537,30.81749,-97.60543,Jarrell,TX,Texas,TRUE,,3870,27.8,48491,Williamson,{'48491':100},FALSE,FALSE,America/Chicago
76538,31.64149,-97.89017,Jonesboro,TX,Texas,TRUE,,761,2,48099,Coryell,"{'48099':51.51,'48193':48.49}",FALSE,FALSE,America/Chicago
76539,31.08867,-98.00991,Kempner,TX,Texas,TRUE,,7841,22,48099,Coryell,"{'48027':17.45,'48053':3.74,'48099':9.49,'48281':69.33}",FALSE,FALSE,America/Chicago
76541,31.11409,-97.72892,Killeen,TX,Texas,TRUE,,19206,1569.1,48027,Bell,{'48027':100},FALSE,FALSE,America/Chicago
76542,31.0106,-97.74609,Killeen,TX,Texas,TRUE,,40025,192.2,48027,Bell,{'48027':100},FALSE,FALSE,America/Chicago
76543,31.13896,-97.64326,Killeen,TX,Texas,TRUE,,30430,242.1,48027,Bell,{'48027':100},FALSE,FALSE,America/Chicago
76544,31.14311,-97.76164,Fort Hood,TX,Texas,TRUE,,29943,377,48027,Bell,"{'48027':51.06,'48099':48.94}",FALSE,FALSE,America/Chicago
76548,31.05081,-97.64587,Harker Heights,TX,Texas,TRUE,,26344,655.9,48027,Bell,{'48027':100},FALSE,FALSE,America/Chicago
76549,31.01317,-97.82996,Killeen,TX,Texas,TRUE,,44490,223.8,48027,Bell,"{'48027':99.2,'48053':0.4,'48099':0.4}",FALSE,FALSE,America/Chicago
76550,31.08754,-98.22873,Lampasas,TX,Texas,TRUE,,11586,8.4,48281,Lampasas,"{'48053':7.91,'48281':92.09}",FALSE,FALSE,America/Chicago
76554,30.97575,-97.3678,Little River Academy,TX,Texas,TRUE,,2104,101.9,48027,Bell,{'48027':100},FALSE,FALSE,America/Chicago
76556,30.70285,-96.82583,Milano,TX,Texas,TRUE,,1461,5.7,48331,Milam,{'48331':100},FALSE,FALSE,America/Chicago
76557,31.29554,-97.39494,Moody,TX,Texas,TRUE,,5178,14.7,48309,McLennan,"{'48027':33.35,'48099':6.45,'48309':60.2}",FALSE,FALSE,America/Chicago
76559,31.07639,-97.60489,Nolanville,TX,Texas,TRUE,,5051,290.5,48027,Bell,{'48027':100},FALSE,FALSE,America/Chicago
76561,31.41292,-97.53715,Oglesby,TX,Texas,TRUE,,962,8.2,48099,Coryell,{'48099':100},FALSE,FALSE,America/Chicago
76565,31.64369,-98.351,Pottsville,TX,Texas,TRUE,,74,1,48193,Hamilton,{'48193':100},FALSE,FALSE,America/Chicago
76566,31.51053,-97.99616,Purmela,TX,Texas,TRUE,,258,1.8,48099,Coryell,"{'48099':89.15,'48193':10.85}",FALSE,FALSE,America/Chicago
76567,30.65,-97.00757,Rockdale,TX,Texas,TRUE,,8984,17.9,48331,Milam,"{'48051':2.25,'48331':97.75}",FALSE,FALSE,America/Chicago
76569,30.94373,-97.22878,Rogers,TX,Texas,TRUE,,2498,11.8,48027,Bell,"{'48027':96.4,'48331':3.6}",FALSE,FALSE,America/Chicago
76570,31.08166,-96.93866,Rosebud,TX,Texas,TRUE,,2572,5.5,48145,Falls,"{'48145':96.23,'48331':3.77}",FALSE,FALSE,America/Chicago
76571,30.93381,-97.58907,Salado,TX,Texas,TRUE,,6790,22.2,48027,Bell,{'48027':100},FALSE,FALSE,America/Chicago
76573,30.81862,-97.50231,Schwertner,TX,Texas,TRUE,,26,11.2,48491,Williamson,{'48491':100},FALSE,FALSE,America/Chicago
76574,30.58422,-97.38742,Taylor,TX,Texas,TRUE,,17661,47.9,48491,Williamson,{'48491':100},FALSE,FALSE,America/Chicago
76577,30.62971,-97.16969,Thorndale,TX,Texas,TRUE,,3046,7.8,48331,Milam,"{'48331':98.39,'48491':1.61}",FALSE,FALSE,America/Chicago
76578,30.53614,-97.2379,Thrall,TX,Texas,TRUE,,1766,9.1,48491,Williamson,{'48491':100},FALSE,FALSE,America/Chicago
76579,31.197,-97.2637,Troy,TX,Texas,TRUE,,4258,28.7,48027,Bell,"{'48027':97.63,'48145':2.37}",FALSE,FALSE,America/Chicago
76596,31.47755,-97.7296,Gatesville,TX,Texas,TRUE,,1274,1629.4,48099,Coryell,{'48099':100},FALSE,FALSE,America/Chicago
76597,31.48643,-97.70685,Gatesville,TX,Texas,TRUE,,2882,2307.1,48099,Coryell,{'48099':100},FALSE,FALSE,America/Chicago
76598,31.47533,-97.73546,Gatesville,TX,Texas,TRUE,,523,5236.7,48099,Coryell,{'48099':100},FALSE,FALSE,America/Chicago
76599,31.4679,-97.73518,Gatesville,TX,Texas,TRUE,,1956,1535.6,48099,Coryell,{'48099':100},FALSE,FALSE,America/Chicago
76621,31.88299,-97.08594,Abbott,TX,Texas,TRUE,,1037,5.5,48217,Hill,{'48217':100},FALSE,FALSE,America/Chicago
76622,31.82204,-97.24398,Aquilla,TX,Texas,TRUE,,1015,7.4,48217,Hill,{'48217':100},FALSE,FALSE,America/Chicago
76623,32.21038,-96.75658,Avalon,TX,Texas,TRUE,,242,18.4,48139,Ellis,{'48139':100},FALSE,FALSE,America/Chicago
76624,31.6566,-96.9596,Axtell,TX,Texas,TRUE,,2231,13.4,48309,McLennan,{'48309':100},FALSE,FALSE,America/Chicago
76626,32.10623,-96.71536,Blooming Grove,TX,Texas,TRUE,,1563,14.8,48349,Navarro,{'48349':100},FALSE,FALSE,America/Chicago
76627,32.10741,-97.39448,Blum,TX,Texas,TRUE,,1601,7,48217,Hill,{'48217':100},FALSE,FALSE,America/Chicago
76628,32.03143,-96.95221,Brandon,TX,Texas,TRUE,,111,4.6,48217,Hill,{'48217':100},FALSE,FALSE,America/Chicago
76629,31.15492,-96.6554,Bremond,TX,Texas,TRUE,,1989,5.4,48395,Robertson,"{'48145':9.5,'48395':90.5}",FALSE,FALSE,America/Chicago
76630,31.34051,-97.2209,Bruceville,TX,Texas,TRUE,,1840,49.3,48309,McLennan,"{'48145':0.6,'48309':99.4}",FALSE,FALSE,America/Chicago
76631,31.97451,-96.96749,Bynum,TX,Texas,TRUE,,522,4.9,48217,Hill,{'48217':100},FALSE,FALSE,America/Chicago
76632,31.29873,-97.06009,Chilton,TX,Texas,TRUE,,1778,11.4,48145,Falls,{'48145':100},FALSE,FALSE,America/Chicago
76633,31.6781,-97.31732,China Spring,TX,Texas,TRUE,,4973,39.8,48309,McLennan,"{'48035':9.75,'48309':90.25}",FALSE,FALSE,America/Chicago
76634,31.80782,-97.56147,Clifton,TX,Texas,TRUE,,7093,9.7,48035,Bosque,"{'48035':99.38,'48099':0.62}",FALSE,FALSE,America/Chicago
76635,31.7284,-96.66385,Coolidge,TX,Texas,TRUE,,1341,4.9,48293,Limestone,{'48293':100},FALSE,FALSE,America/Chicago
76636,32.17157,-97.28592,Covington,TX,Texas,TRUE,,1497,13.3,48217,Hill,{'48217':100},FALSE,FALSE,America/Chicago
76637,31.76614,-97.81682,Cranfills Gap,TX,Texas,TRUE,,536,5.2,48035,Bosque,"{'48035':91.04,'48193':8.96}",FALSE,FALSE,America/Chicago
76638,31.5498,-97.44461,Crawford,TX,Texas,TRUE,,2837,13.3,48309,McLennan,{'48309':100},FALSE,FALSE,America/Chicago
76639,31.87246,-96.65574,Dawson,TX,Texas,TRUE,,1584,6.7,48349,Navarro,{'48349':100},FALSE,FALSE,America/Chicago
76640,31.68989,-97.07077,Elm Mott,TX,Texas,TRUE,,3005,40.8,48309,McLennan,{'48309':100},FALSE,FALSE,America/Chicago
76641,32.03449,-96.79489,Frost,TX,Texas,TRUE,,1674,8.6,48349,Navarro,{'48349':100},FALSE,FALSE,America/Chicago
76642,31.50133,-96.51758,Groesbeck,TX,Texas,TRUE,,7057,10.7,48293,Limestone,{'48293':100},FALSE,FALSE,America/Chicago
76643,31.4538,-97.19366,Hewitt,TX,Texas,TRUE,,13554,652.2,48309,McLennan,{'48309':100},FALSE,FALSE,America/Chicago
76645,32.02172,-97.1336,Hillsboro,TX,Texas,TRUE,,11039,25.5,48217,Hill,{'48217':100},FALSE,FALSE,America/Chicago
76648,31.84718,-96.80272,Hubbard,TX,Texas,TRUE,,2302,8.6,48349,Navarro,"{'48217':88.62,'48293':2.3,'48349':9.08}",FALSE,FALSE,America/Chicago
76649,32.00077,-97.87751,Iredell,TX,Texas,TRUE,,790,2.2,48035,Bosque,"{'48035':91.52,'48143':8.48}",FALSE,FALSE,America/Chicago
76650,31.98357,-96.8604,Irene,TX,Texas,TRUE,,104,3.8,48217,Hill,{'48217':100},FALSE,FALSE,America/Chicago
76651,32.1807,-96.86697,Italy,TX,Texas,TRUE,,3300,12.3,48139,Ellis,{'48139':100},FALSE,FALSE,America/Chicago
76652,32.11575,-97.57043,Kopperl,TX,Texas,TRUE,,1087,4.8,48035,Bosque,{'48035':100},FALSE,FALSE,America/Chicago
76653,31.29809,-96.60818,Kosse,TX,Texas,TRUE,,1082,2.8,48293,Limestone,"{'48145':18.58,'48293':79.76,'48395':1.66}",FALSE,FALSE,America/Chicago
76654,31.73054,-97.01427,Leroy,TX,Texas,TRUE,,151,90.8,48309,McLennan,{'48309':100},FALSE,FALSE,America/Chicago
76655,31.39608,-97.1774,Lorena,TX,Texas,TRUE,,7831,39.6,48309,McLennan,"{'48145':7.5,'48309':92.5}",FALSE,FALSE,America/Chicago
76656,31.18466,-97.05859,Lott,TX,Texas,TRUE,,2276,7.6,48145,Falls,{'48145':100},FALSE,FALSE,America/Chicago
76657,31.4458,-97.39449,Mc Gregor,TX,Texas,TRUE,,9307,33.8,48309,McLennan,"{'48099':1.64,'48309':98.36}",FALSE,FALSE,America/Chicago
76660,31.9243,-96.90239,Malone,TX,Texas,TRUE,,506,5.5,48217,Hill,{'48217':100},FALSE,FALSE,America/Chicago
76661,31.31864,-96.84932,Marlin,TX,Texas,TRUE,,8708,20.9,48145,Falls,{'48145':100},FALSE,FALSE,America/Chicago
76664,31.55795,-96.79575,Mart,TX,Texas,TRUE,,3514,10,48309,McLennan,"{'48145':1.39,'48293':10.39,'48309':88.22}",FALSE,FALSE,America/Chicago
76665,31.9135,-97.71631,Meridian,TX,Texas,TRUE,,2526,6.1,48035,Bosque,{'48035':100},FALSE,FALSE,America/Chicago
76666,32.04403,-96.91737,Mertens,TX,Texas,TRUE,,244,5.8,48217,Hill,{'48217':100},FALSE,FALSE,America/Chicago
76667,31.65532,-96.46855,Mexia,TX,Texas,TRUE,,11313,30.3,48293,Limestone,"{'48161':3.07,'48293':96.93}",FALSE,FALSE,America/Chicago
76670,32.13146,-96.98936,Milford,TX,Texas,TRUE,,1377,7.6,48139,Ellis,"{'48139':71.46,'48217':28.54}",FALSE,FALSE,America/Chicago
76671,31.99488,-97.53198,Morgan,TX,Texas,TRUE,,1777,8.6,48035,Bosque,{'48035':100},FALSE,FALSE,America/Chicago
76673,31.74945,-96.89139,Mount Calm,TX,Texas,TRUE,,1187,5,48217,Hill,"{'48217':70.35,'48293':29.15,'48309':0.51}",FALSE,FALSE,America/Chicago
76676,31.86551,-96.95103,Penelope,TX,Texas,TRUE,,413,7.4,48217,Hill,{'48217':100},FALSE,FALSE,America/Chicago
76678,31.6555,-96.7588,Prairie Hill,TX,Texas,TRUE,,263,2.7,48293,Limestone,{'48293':100},FALSE,FALSE,America/Chicago
76679,31.92429,-96.58564,Purdon,TX,Texas,TRUE,,1432,7.2,48349,Navarro,{'48349':100},FALSE,FALSE,America/Chicago
76680,31.19335,-96.81792,Reagan,TX,Texas,TRUE,,190,1.3,48145,Falls,{'48145':100},FALSE,FALSE,America/Chicago
76681,31.8933,-96.43509,Richland,TX,Texas,TRUE,,873,4.6,48349,Navarro,{'48349':100},FALSE,FALSE,America/Chicago
76682,31.45363,-96.9059,Riesel,TX,Texas,TRUE,,2660,9.1,48309,McLennan,"{'48145':21.43,'48309':78.57}",FALSE,FALSE,America/Chicago
76685,31.3533,-97.01114,Satin,TX,Texas,TRUE,,108,3.1,48145,Falls,{'48145':100},FALSE,FALSE,America/Chicago
76686,31.76592,-96.55798,Tehuacana,TX,Texas,TRUE,,285,9.7,48293,Limestone,{'48293':100},FALSE,FALSE,America/Chicago
76687,31.37174,-96.49932,Thornton,TX,Texas,TRUE,,1466,4.3,48293,Limestone,"{'48145':0.89,'48293':80.76,'48395':18.35}",FALSE,FALSE,America/Chicago
76689,31.66662,-97.50416,Valley Mills,TX,Texas,TRUE,,3996,6.7,48035,Bosque,"{'48035':66.89,'48099':4.58,'48309':28.53}",FALSE,FALSE,America/Chicago
76690,32.08226,-97.73324,Walnut Springs,TX,Texas,TRUE,,1197,5.7,48035,Bosque,{'48035':100},FALSE,FALSE,America/Chicago
76691,31.77816,-97.09626,West,TX,Texas,TRUE,,6454,25,48309,McLennan,"{'48217':1.21,'48309':98.79}",FALSE,FALSE,America/Chicago
76692,31.95806,-97.32888,Whitney,TX,Texas,TRUE,,10115,31.9,48217,Hill,{'48217':100},FALSE,FALSE,America/Chicago
76693,31.78599,-96.40642,Wortham,TX,Texas,TRUE,,1651,8.2,48161,Freestone,"{'48161':98.3,'48293':1.7}",FALSE,FALSE,America/Chicago
76701,31.55202,-97.13858,Waco,TX,Texas,TRUE,,1826,619,48309,McLennan,{'48309':100},FALSE,FALSE,America/Chicago
76704,31.57679,-97.12697,Waco,TX,Texas,TRUE,,8007,597.5,48309,McLennan,{'48309':100},FALSE,FALSE,America/Chicago
76705,31.62656,-97.09606,Waco,TX,Texas,TRUE,,29155,98.5,48309,McLennan,{'48309':100},FALSE,FALSE,America/Chicago
76706,31.46653,-97.0912,Waco,TX,Texas,TRUE,,35015,190.7,48309,McLennan,"{'48145':0.03,'48309':99.97}",FALSE,FALSE,America/Chicago
76707,31.55371,-97.15818,Waco,TX,Texas,TRUE,,16697,1975.5,48309,McLennan,{'48309':100},FALSE,FALSE,America/Chicago
76708,31.62687,-97.21135,Waco,TX,Texas,TRUE,,24476,203.1,48309,McLennan,{'48309':100},FALSE,FALSE,America/Chicago
76710,31.53875,-97.19525,Waco,TX,Texas,TRUE,,22686,921.1,48309,McLennan,{'48309':100},FALSE,FALSE,America/Chicago
76711,31.51441,-97.15333,Waco,TX,Texas,TRUE,,9042,884.4,48309,McLennan,{'48309':100},FALSE,FALSE,America/Chicago
76712,31.52401,-97.25565,Woodway,TX,Texas,TRUE,,23506,180.3,48309,McLennan,{'48309':100},FALSE,FALSE,America/Chicago
76798,31.5484,-97.11901,Waco,TX,Texas,TRUE,,1862,20597.6,48309,McLennan,{'48309':100},FALSE,FALSE,America/Chicago
76801,31.7425,-99.03991,Brownwood,TX,Texas,TRUE,,25552,25.8,48049,Brown,"{'48049':99.75,'48083':0.02,'48333':0.23}",FALSE,FALSE,America/Chicago
76802,31.75327,-98.90283,Early,TX,Texas,TRUE,,5075,27.1,48049,Brown,{'48049':100},FALSE,FALSE,America/Chicago
76820,30.76719,-99.04869,Art,TX,Texas,TRUE,,125,0.6,48319,Mason,{'48319':100},FALSE,FALSE,America/Chicago
76821,31.7387,-99.93626,Ballinger,TX,Texas,TRUE,,4869,6.2,48399,Runnels,{'48399':100},FALSE,FALSE,America/Chicago
76823,31.70119,-99.15992,Bangs,TX,Texas,TRUE,,2945,10.1,48049,Brown,"{'48049':98.74,'48083':1.26}",FALSE,FALSE,America/Chicago
76824,31.00358,-98.47066,Bend,TX,Texas,TRUE,,35,0.5,48411,San Saba,{'48411':100},FALSE,FALSE,America/Chicago
76825,31.10474,-99.39545,Brady,TX,Texas,TRUE,,7091,5.3,48307,McCulloch,"{'48307':99.56,'48319':0.44}",FALSE,FALSE,America/Chicago
76827,31.52636,-99.12819,Brookesmith,TX,Texas,TRUE,,433,2.3,48049,Brown,{'48049':100},FALSE,FALSE,America/Chicago
76828,32.00902,-99.29395,Burkett,TX,Texas,TRUE,,199,0.8,48083,Coleman,{'48083':100},FALSE,FALSE,America/Chicago
76831,30.63982,-98.91956,Castell,TX,Texas,TRUE,,63,0.6,48299,Llano,{'48299':100},FALSE,FALSE,America/Chicago
76832,30.98539,-98.73036,Cherokee,TX,Texas,TRUE,,559,1.1,48411,San Saba,{'48411':100},FALSE,FALSE,America/Chicago
76834,31.87437,-99.47038,Coleman,TX,Texas,TRUE,,5908,5.6,48083,Coleman,{'48083':100},FALSE,FALSE,America/Chicago
76836,31.42602,-99.55599,Doole,TX,Texas,TRUE,,41,0.4,48307,McCulloch,{'48307':100},FALSE,FALSE,America/Chicago
76837,31.2208,-99.89594,Eden,TX,Texas,TRUE,,3188,2.8,48095,Concho,{'48095':100},FALSE,FALSE,America/Chicago
76841,30.89369,-100.09665,Fort Mc Kavett,TX,Texas,TRUE,,61,0.2,48327,Menard,"{'48327':90.16,'48413':9.84}",FALSE,FALSE,America/Chicago
76842,30.95434,-99.07297,Fredonia,TX,Texas,TRUE,,191,0.8,48307,McCulloch,"{'48307':9.42,'48319':58.64,'48411':31.94}",FALSE,FALSE,America/Chicago
76844,31.43787,-98.50904,Goldthwaite,TX,Texas,TRUE,,3550,3.3,48333,Mills,"{'48193':0.45,'48281':0.42,'48333':99.13}",FALSE,FALSE,America/Chicago
76845,31.54732,-99.48707,Gouldbusk,TX,Texas,TRUE,,178,0.6,48083,Coleman,{'48083':100},FALSE,FALSE,America/Chicago
76848,30.84316,-99.56995,Hext,TX,Texas,TRUE,,78,0.5,48327,Menard,{'48327':100},FALSE,FALSE,America/Chicago
76849,30.48896,-99.79705,Junction,TX,Texas,TRUE,,3944,1.6,48267,Kimble,{'48267':100},FALSE,FALSE,America/Chicago
76852,31.35942,-99.45093,Lohn,TX,Texas,TRUE,,212,0.5,48307,McCulloch,{'48307':100},FALSE,FALSE,America/Chicago
76853,31.24578,-98.38721,Lometa,TX,Texas,TRUE,,1622,2.4,48281,Lampasas,"{'48281':98.71,'48333':1.29}",FALSE,FALSE,America/Chicago
76854,30.68565,-99.57564,London,TX,Texas,TRUE,,401,1.1,48267,Kimble,"{'48267':68.33,'48327':31.67}",FALSE,FALSE,America/Chicago
76856,30.70618,-99.26619,Mason,TX,Texas,TRUE,,3582,1.9,48319,Mason,{'48319':100},FALSE,FALSE,America/Chicago
76857,31.93192,-98.93509,May,TX,Texas,TRUE,,1791,5.2,48049,Brown,"{'48049':99.44,'48093':0.56}",FALSE,FALSE,America/Chicago
76858,31.19745,-99.62051,Melvin,TX,Texas,TRUE,,254,0.8,48307,McCulloch,"{'48095':13.39,'48307':86.61}",FALSE,FALSE,America/Chicago
76859,30.908,-99.83252,Menard,TX,Texas,TRUE,,1982,1.1,48327,Menard,{'48327':100},FALSE,FALSE,America/Chicago
76861,31.59103,-100.19533,Miles,TX,Texas,TRUE,,1995,4.5,48399,Runnels,"{'48399':57.49,'48451':42.51}",FALSE,FALSE,America/Chicago
76862,31.41517,-99.68743,Millersview,TX,Texas,TRUE,,198,0.6,48095,Concho,{'48095':100},FALSE,FALSE,America/Chicago
76864,31.5541,-98.73378,Mullin,TX,Texas,TRUE,,890,1.5,48333,Mills,{'48333':100},FALSE,FALSE,America/Chicago
76865,31.85815,-100.1663,Norton,TX,Texas,TRUE,,160,1.9,48399,Runnels,{'48399':100},FALSE,FALSE,America/Chicago
76866,31.46085,-99.92784,Paint Rock,TX,Texas,TRUE,,623,0.9,48095,Concho,{'48095':100},FALSE,FALSE,America/Chicago
76869,30.91283,-98.99787,Pontotoc,TX,Texas,TRUE,,125,0.7,48319,Mason,"{'48319':82.4,'48411':17.6}",FALSE,FALSE,America/Chicago
76870,31.63824,-98.52981,Priddy,TX,Texas,TRUE,,251,3.5,48333,Mills,{'48333':100},FALSE,FALSE,America/Chicago
76871,31.29052,-98.98711,Richland Springs,TX,Texas,TRUE,,784,1.3,48411,San Saba,"{'48307':0.64,'48411':99.36}",FALSE,FALSE,America/Chicago
76872,31.32323,-99.16709,Rochelle,TX,Texas,TRUE,,717,0.9,48307,McCulloch,"{'48307':83.82,'48411':16.18}",FALSE,FALSE,America/Chicago
76873,31.51108,-99.37924,Rockwood,TX,Texas,TRUE,,55,0.5,48083,Coleman,{'48083':100},FALSE,FALSE,America/Chicago
76874,30.45873,-100.06913,Roosevelt,TX,Texas,TRUE,,68,0.4,48267,Kimble,{'48267':100},FALSE,FALSE,America/Chicago
76875,31.60276,-100.00574,Rowena,TX,Texas,TRUE,,668,2.4,48399,Runnels,"{'48095':6.59,'48399':93.41}",FALSE,FALSE,America/Chicago
76877,31.17246,-98.75694,San Saba,TX,Texas,TRUE,,4558,3.2,48411,San Saba,{'48411':100},FALSE,FALSE,America/Chicago
76878,31.65761,-99.29342,Santa Anna,TX,Texas,TRUE,,1685,2.5,48083,Coleman,{'48083':100},FALSE,FALSE,America/Chicago
76882,31.81966,-99.70243,Talpa,TX,Texas,TRUE,,252,0.7,48083,Coleman,"{'48083':78.57,'48399':21.43}",FALSE,FALSE,America/Chicago
76884,31.73029,-99.55325,Valera,TX,Texas,TRUE,,172,1.9,48083,Coleman,{'48083':100},FALSE,FALSE,America/Chicago
76885,30.87708,-98.86324,Valley Spring,TX,Texas,TRUE,,154,0.8,48299,Llano,{'48299':100},FALSE,FALSE,America/Chicago
76887,31.01268,-99.16058,Voca,TX,Texas,TRUE,,126,0.8,48307,McCulloch,{'48307':100},FALSE,FALSE,America/Chicago
76888,31.60827,-99.63989,Voss,TX,Texas,TRUE,,110,0.4,48083,Coleman,{'48083':100},FALSE,FALSE,America/Chicago
76890,31.69146,-98.77559,Zephyr,TX,Texas,TRUE,,940,3.9,48049,Brown,"{'48049':89.15,'48093':0.64,'48333':10.21}",FALSE,FALSE,America/Chicago
76901,31.54094,-100.62879,San Angelo,TX,Texas,TRUE,,27969,39.1,48451,Tom Green,"{'48235':0.1,'48451':99.9}",FALSE,FALSE,America/Chicago
76903,31.48482,-100.43723,San Angelo,TX,Texas,TRUE,,31905,462.7,48451,Tom Green,{'48451':100},FALSE,FALSE,America/Chicago
76904,31.28359,-100.39453,San Angelo,TX,Texas,TRUE,,32718,31.3,48451,Tom Green,"{'48235':0.2,'48451':99.8}",FALSE,FALSE,America/Chicago
76905,31.50981,-100.32215,San Angelo,TX,Texas,TRUE,,11335,21.1,48451,Tom Green,{'48451':100},FALSE,FALSE,America/Chicago
76908,31.43208,-100.40222,Goodfellow Afb,TX,Texas,TRUE,,1951,539.5,48451,Tom Green,{'48451':100},FALSE,FALSE,America/Chicago
76930,31.27277,-101.17275,Barnhart,TX,Texas,TRUE,,156,0.3,48235,Irion,{'48235':100},FALSE,FALSE,America/Chicago
76932,31.26949,-101.54094,Big Lake,TX,Texas,TRUE,,3390,1.3,48383,Reagan,"{'48105':1.12,'48383':98.88}",FALSE,FALSE,America/Chicago
76933,31.86341,-100.28783,Bronte,TX,Texas,TRUE,,1365,2,48081,Coke,"{'48081':92.31,'48399':7.69}",FALSE,FALSE,America/Chicago
76934,31.60302,-100.66902,Carlsbad,TX,Texas,TRUE,,1296,32.1,48451,Tom Green,{'48451':100},FALSE,FALSE,America/Chicago
76935,31.08045,-100.41658,Christoval,TX,Texas,TRUE,,1606,2.1,48451,Tom Green,"{'48413':4.67,'48451':95.33}",FALSE,FALSE,America/Chicago
76936,30.88566,-100.58752,Eldorado,TX,Texas,TRUE,,3377,1.2,48413,Schleicher,{'48413':100},FALSE,FALSE,America/Chicago
76937,31.38855,-100.15142,Eola,TX,Texas,TRUE,,37,1.4,48451,Tom Green,{'48451':100},FALSE,FALSE,America/Chicago
76939,31.27777,-100.55738,Knickerbocker,TX,Texas,TRUE,,51,0.6,48451,Tom Green,{'48451':100},FALSE,FALSE,America/Chicago
76940,31.43903,-100.14294,Mereta,TX,Texas,TRUE,,176,4.6,48451,Tom Green,{'48451':100},FALSE,FALSE,America/Chicago
76941,31.26807,-100.91168,Mertzon,TX,Texas,TRUE,,1348,0.9,48235,Irion,{'48235':100},FALSE,FALSE,America/Chicago
76943,30.53101,-101.30066,Ozona,TX,Texas,TRUE,,3693,0.6,48105,Crockett,"{'48105':98.54,'48465':1.46}",FALSE,FALSE,America/Chicago
76945,31.88095,-100.61152,Robert Lee,TX,Texas,TRUE,,1665,1.1,48081,Coke,"{'48081':100,'48431':0}",FALSE,FALSE,America/Chicago
76949,32.04179,-100.69269,Silver,TX,Texas,TRUE,,7,0.3,48081,Coke,{'48081':100},FALSE,FALSE,America/Chicago
76950,30.43734,-100.56036,Sonora,TX,Texas,TRUE,,4180,0.9,48435,Sutton,"{'48137':1.05,'48435':98.76,'48465':0.19}",FALSE,FALSE,America/Chicago
76951,31.81488,-101.04641,Sterling City,TX,Texas,TRUE,,1143,0.5,48431,Sterling,{'48431':100},FALSE,FALSE,America/Chicago
76953,31.72302,-100.32765,Tennyson,TX,Texas,TRUE,,74,0.6,48081,Coke,{'48081':100},FALSE,FALSE,America/Chicago
76955,31.28953,-100.15274,Vancourt,TX,Texas,TRUE,,133,1.1,48451,Tom Green,{'48451':100},FALSE,FALSE,America/Chicago
76957,31.3722,-100.30507,Wall,TX,Texas,TRUE,,59,81.5,48451,Tom Green,{'48451':100},FALSE,FALSE,America/Chicago
76958,31.59514,-100.79923,Water Valley,TX,Texas,TRUE,,310,1.2,48451,Tom Green,{'48451':100},FALSE,FALSE,America/Chicago
77002,29.75641,-95.3653,Houston,TX,Texas,TRUE,,16793,3222,48201,Harris,{'48201':100},FALSE,FALSE,America/Chicago
77003,29.7493,-95.34582,Houston,TX,Texas,TRUE,,10508,1598.1,48201,Harris,{'48201':100},FALSE,FALSE,America/Chicago
77004,29.72463,-95.36307,Houston,TX,Texas,TRUE,,32692,2184,48201,Harris,{'48201':100},FALSE,FALSE,America/Chicago
77005,29.71817,-95.4242,Houston,TX,Texas,TRUE,,25528,2563.4,48201,Harris,{'48201':100},FALSE,FALSE,America/Chicago
77006,29.74107,-95.39133,Houston,TX,Texas,TRUE,,19664,3366.6,48201,Harris,{'48201':100},FALSE,FALSE,America/Chicago
77007,29.77128,-95.41145,Houston,TX,Texas,TRUE,,30853,1525.4,48201,Harris,{'48201':100},FALSE,FALSE,America/Chicago
77008,29.7986,-95.41754,Houston,TX,Texas,TRUE,,30482,1801.6,48201,Harris,{'48201':100},FALSE,FALSE,America/Chicago
77009,29.79504,-95.36747,Houston,TX,Texas,TRUE,,38094,2378.7,48201,Harris,{'48201':100},FALSE,FALSE,America/Chicago
77010,29.75364,-95.35983,Houston,TX,Texas,TRUE,,366,1144.6,48201,Harris,{'48201':100},FALSE,FALSE,America/Chicago
77011,29.74326,-95.30844,Houston,TX,Texas,TRUE,,19547,2114.4,48201,Harris,{'48201':100},FALSE,FALSE,America/Chicago
77012,29.71893,-95.27429,Houston,TX,Texas,TRUE,,20719,2036.7,48201,Harris,{'48201':100},FALSE,FALSE,America/Chicago
77013,29.79547,-95.2382,Houston,TX,Texas,TRUE,,17602,775,48201,Harris,{'48201':100},FALSE,FALSE,America/Chicago
77014,29.9805,-95.46358,Houston,TX,Texas,TRUE,,28684,1549.6,48201,Harris,{'48201':100},FALSE,FALSE,America/Chicago
77015,29.76437,-95.17346,Houston,TX,Texas,TRUE,,53621,980.3,48201,Harris,{'48201':100},FALSE,FALSE,America/Chicago
77016,29.86157,-95.29998,Houston,TX,Texas,TRUE,,26989,1077,48201,Harris,{'48201':100},FALSE,FALSE,America/Chicago
77017,29.68995,-95.25224,Houston,TX,Texas,TRUE,,32561,1445.8,48201,Harris,{'48201':100},FALSE,FALSE,America/Chicago
77018,29.82693,-95.4259,Houston,TX,Texas,TRUE,,25563,1490.8,48201,Harris,{'48201':100},FALSE,FALSE,America/Chicago
77019,29.75322,-95.41028,Houston,TX,Texas,TRUE,,18944,2078.2,48201,Harris,{'48201':100},FALSE,FALSE,America/Chicago
77020,29.77305,-95.3138,Houston,TX,Texas,TRUE,,25464,1424.6,48201,Harris,{'48201':100},FALSE,FALSE,America/Chicago
77021,29.69711,-95.35744,Houston,TX,Texas,TRUE,,26042,1654,48201,Harris,{'48201':100},FALSE,FALSE,America/Chicago
77022,29.83057,-95.37698,Houston,TX,Texas,TRUE,,29557,1954.1,48201,Harris,{'48201':100},FALSE,FALSE,America/Chicago
77023,29.72163,-95.31848,Houston,TX,Texas,TRUE,,28998,2054.9,48201,Harris,{'48201':100},FALSE,FALSE,America/Chicago
